"","id","region_id","name","longitude","latitude","people_count","group_id","climate","house_points","street_points","park_points","business_points","social_points","common_points","total_points","emblem_url","region_name","group_name"
"1",1,60,"Абаза",90.0946195742823,52.6346490370383,15.1,6,"условно комфортный климат",29,28,23,19,17,33,149,"https://api.индекс-городов.рф/uploads/city/emblem/1/thumb_1_Abaza.png","Республика Хакасия","Малый город"
"2",2,36,"Абдулино",53.6745983659175,53.6785240816437,18.8,6,"условно комфортный климат",29,17,10,17,15,35,123,"https://api.индекс-городов.рф/uploads/city/emblem/2/thumb_2_Abdulino.png","Оренбургская область","Малый город"
"3",32,53,"Армянск",33.6933797253254,46.1133330799504,21.6,6,"условно комфортный климат",30,26,38,23,21,28,166,"https://api.индекс-городов.рф/uploads/city/emblem/32/thumb_32_armyansk.png","Республика Крым","Малый город"
"4",63,51,"Беломорск",34.7772143994881,64.5250906471825,9.5,6,"тяжелые климатические условия",14,34,34,30,17,34,163,"https://api.индекс-городов.рф/uploads/city/emblem/63/thumb_63_belomorsk.png","Республика Карелия","Малый город"
"5",64,16,"Белоусово",36.6695461166347,55.0926529525368,9.8,6,"условно комфортный климат",35,29,28,32,19,31,174,"https://api.индекс-городов.рф/uploads/city/emblem/64/thumb_64_belousovo.png","Калужская область","Малый город"
"6",5,58,"Агрыз",52.9978375032251,56.5176892775966,19.8,6,"условно комфортный климат",37,26,20,28,21,30,162,"https://api.индекс-городов.рф/uploads/city/emblem/5/thumb_5_Agriz.png","Республика Татарстан","Малый город"
"7",13,56,"Алдан",125.38391164918,58.6068479398297,20,6,"тяжелые климатические условия",24,26,16,17,21,23,127,"https://api.индекс-городов.рф/uploads/city/emblem/13/thumb_13_Aldan.png","Республика Саха (Якутия)","Малый город"
"8",19,53,"Алупка",34.0432883873659,44.4182792485511,8.1,6,"условно комфортный климат",24,33,44,33,29,37,200,"https://api.индекс-городов.рф/uploads/city/emblem/19/thumb_19_Alupka.png","Республика Крым","Малый город"
"9",40,9,"Бабаево",35.9384098295653,59.3951559156359,11.3,6,"условно комфортный климат",25,17,18,18,18,23,119,"https://api.индекс-городов.рф/uploads/city/emblem/40/thumb_40_babaevo.gif","Вологодская область","Малый город"
"10",51,15,"Балтийск",19.9136947392285,54.6567321289753,33.6,5,"условно комфортный климат",36,30,22,24,27,16,155,"https://api.индекс-городов.рф/uploads/city/emblem/51/thumb_51_baltiysk.png","Калининградская область","Малый город"
"11",74,44,"Благовещенск",55.9825021220217,55.0497572862671,35,5,"условно комфортный климат",35,25,51,16,19,33,179,"https://api.индекс-городов.рф/uploads/city/emblem/74/thumb_74_blagoveshensk.png","Республика Башкортостан","Малый город"
"12",83,25,"Бокситогорск",33.8626345309337,59.476942739464,15.2,6,"условно комфортный климат",42,31,26,32,23,37,191,"https://api.индекс-городов.рф/uploads/city/emblem/83/thumb_83_boksitogorsky.png","Ленинградская область","Малый город"
"13",92,22,"Бородино",94.9041362530468,55.9010470346384,16.1,6,"условно комфортный климат",41,31,12,17,26,35,162,"https://api.индекс-городов.рф/uploads/city/emblem/92/thumb_92_borodino.png","Красноярский край","Малый город"
"14",108,80,"Верхний Уфалей",60.2347534867194,56.0474435295699,26.9,5,"условно комфортный климат",25,22,24,19,26,29,145,"https://api.индекс-городов.рф/uploads/city/emblem/108/thumb_108_verhny_ufaley.png","Челябинская область","Малый город"
"15",139,15,"Гвардейск",21.062176202189,54.6525631168433,13.2,6,"условно комфортный климат",42,34,39,26,25,30,196,"https://api.индекс-городов.рф/uploads/city/emblem/139/thumb_139_gvardeysk.png","Калининградская область","Малый город"
"16",172,22,"Дивногорск",92.3537247575609,55.9503173215405,29.2,5,"условно комфортный климат",29,22,26,27,24,28,156,"https://api.индекс-городов.рф/uploads/city/emblem/172/thumb_172_divnogorsk.png","Красноярский край","Малый город"
"17",180,69,"Дорогобуж",33.2898899970111,54.9076055750815,9.5,6,"условно комфортный климат",31,26,27,19,28,26,157,"https://api.индекс-городов.рф/uploads/city/emblem/180/thumb_180_Dorogobuzh.png","Смоленская область","Малый город"
"18",181,29,"Дрезна",38.8493196869729,55.7424097766012,11.3,6,"условно комфортный климат",42,29,20,44,27,31,193,"https://api.индекс-городов.рф/uploads/city/emblem/181/thumb_181_Drezna.png","Московская область","Малый город"
"19",122,25,"Волхов",32.3285519794146,59.9154944378015,44.5,5,"условно комфортный климат",39,31,23,22,22,31,168,"https://api.индекс-городов.рф/uploads/city/emblem/122/thumb_122_volkhov.gif","Ленинградская область","Малый город"
"20",205,13,"Заволжск",42.1406416329987,57.4806988417162,9.8,6,"условно комфортный климат",39,29,29,21,17,32,167,"https://api.индекс-городов.рф/uploads/city/emblem/205/thumb_205_Zavolzhsk.png","Ивановская область","Малый город"
"21",232,22,"Иланский",96.1032726367372,56.2383163637996,15,6,"условно комфортный климат",23,19,17,11,14,31,115,"https://api.индекс-городов.рф/uploads/city/emblem/232/thumb_233_ilanski.png","Красноярский край","Малый город"
"22",238,67,"Ирбит",63.0316965343162,57.6523291532332,36.7,5,"условно комфортный климат",27,30,24,29,25,39,174,"https://api.индекс-городов.рф/uploads/city/emblem/238/thumb_239_Irbit.png","Свердловская область","Малый город"
"23",248,76,"Камбарка",54.2065898415517,56.2492703423725,10.2,6,"условно комфортный климат",27,26,18,24,20,35,150,"https://api.индекс-городов.рф/uploads/city/emblem/248/thumb_249_Kambarka.png","Удмуртская Республика","Малый город"
"24",273,73,"Кедровый",79.5678564463877,57.5619454590494,1.9,7,"условно комфортный климат",34,21,17,12,15,42,141,"https://api.индекс-городов.рф/uploads/city/emblem/273/thumb_274_Kedrovi.png","Томская область","Малый город"
"25",291,32,"Княгинино",45.0349320679748,55.8231967752504,6.6,6,"условно комфортный климат",29,28,15,27,24,33,156,"https://api.индекс-городов.рф/uploads/city/emblem/291/thumb_293_Knyaginino.png","Нижегородская область","Малый город"
"26",307,61,"Константиновск",41.1037541240937,47.5829585871546,17.1,6,"условно комфортный климат",29,33,22,17,16,30,147,"https://api.индекс-городов.рф/uploads/city/emblem/307/thumb_309_konstantinovsk.png","Ростовская область","Малый город"
"27",338,36,"Кувандык",57.3741688574495,51.4759536370475,23.4,6,"условно комфортный климат",33,29,20,16,17,33,148,"https://api.индекс-городов.рф/uploads/city/emblem/338/thumb_340_kuvandik.png","Оренбургская область","Малый город"
"28",352,80,"Кыштым",60.5448829233992,55.7080835630267,36.4,5,"условно комфортный климат",35,29,14,26,33,35,172,"https://api.индекс-городов.рф/uploads/city/emblem/352/thumb_354_kyshtym.gif","Челябинская область","Малый город"
"29",372,25,"Луга",29.8499674928673,58.7380325563626,35,5,"условно комфортный климат",26,29,41,38,35,30,199,"https://api.индекс-городов.рф/uploads/city/emblem/372/thumb_374_luga.gif","Ленинградская область","Малый город"
"30",387,33,"Малая Вишера",32.2201001791356,58.8472339132876,10.4,6,"условно комфортный климат",22,29,18,23,29,19,140,"https://api.индекс-городов.рф/uploads/city/emblem/387/thumb_389_malaya_vishera.png","Новгородская область","Малый город"
"31",404,7,"Меленки",41.6304401337142,55.3368704750066,13.6,6,"условно комфортный климат",37,27,25,32,26,32,179,"https://api.индекс-городов.рф/uploads/city/emblem/404/thumb_406_melenki.png","Владимирская область","Малый город"
"32",428,32,"Навашино",42.1960030591427,55.532593025163,14.7,6,"условно комфортный климат",37,30,25,24,25,32,173,"https://api.индекс-городов.рф/uploads/city/emblem/428/thumb_430_navashino.png","Нижегородская область","Малый город"
"33",437,67,"Невьянск",60.2172100989456,57.4861560202558,22.9,6,"условно комфортный климат",39,28,20,35,26,32,180,"https://api.индекс-городов.рф/uploads/city/emblem/437/thumb_439_nevyansk.png","Свердловская область","Малый город"
"34",470,10,"Новохоперск",41.6179717961522,51.0888773801755,6,6,"условно комфортный климат",26,17,15,19,21,31,129,"https://api.индекс-городов.рф/uploads/city/emblem/470/thumb_472_novokhopersk.png","Воронежская область","Малый город"
"35",503,8,"Палласовка",46.8870227074313,50.0466195552463,14.7,6,"условно комфортный климат",30,39,19,14,22,29,153,"https://api.индекс-городов.рф/uploads/city/emblem/503/thumb_505_pallasovka.png","Волгоградская область","Малый город"
"36",536,69,"Починок",32.4436749612648,54.405402502502,8.3,6,"условно комфортный климат",28,26,20,27,21,36,158,"https://api.индекс-городов.рф/uploads/city/emblem/536/thumb_538_pochinok.png","Смоленская область","Малый город"
"37",561,69,"Рудня",31.0687271461772,54.9488103861151,9.5,6,"условно комфортный климат",24,25,26,20,15,28,138,"https://api.индекс-городов.рф/uploads/city/emblem/561/thumb_563_Rudnaya.png","Смоленская область","Малый город"
"38",569,62,"Сасово",41.9396251877413,54.3546063225125,24.5,5,"условно комфортный климат",35,27,36,19,25,30,172,"https://api.индекс-городов.рф/uploads/city/emblem/569/thumb_571_Sasovo.png","Рязанская область","Малый город"
"39",577,25,"Светогорск",28.86204450809,61.1044422889625,15.4,6,"условно комфортный климат",36,32,25,24,23,32,172,"https://api.индекс-городов.рф/uploads/city/emblem/577/thumb_579_Svetogorsk.png","Ленинградская область","Малый город"
"40",605,19,"Советск",48.9683282230401,57.6021597515711,15.4,6,"условно комфортный климат",28,26,45,15,20,32,166,"https://api.индекс-городов.рф/uploads/city/emblem/605/thumb_607_sovetsk.png","Кировская область","Малый город"
"41",152,26,"Грязи",39.9442413421743,52.4898367011671,46.6,5,"условно комфортный климат",39,25,37,18,23,38,180,"https://api.индекс-городов.рф/uploads/city/emblem/152/thumb_152_gryazi.png","Липецкая область","Малый город"
"42",635,5,"Строитель",36.4852471256104,50.7919437268982,24,6,"условно комфортный климат",43,36,18,27,24,30,178,"https://api.индекс-городов.рф/uploads/city/emblem/635/thumb_637_stroitel.png","Белгородская область","Малый город"
"43",670,56,"Томмот",126.263244047181,58.9498191368963,6.8,6,"тяжелые климатические условия",8,13,12,12,8,31,84,"https://api.индекс-городов.рф/uploads/city/emblem/670/thumb_672_tommot.gif","Республика Саха (Якутия)","Малый город"
"44",704,24,"Фатеж",35.8583381913757,52.0908540882373,6,6,"условно комфортный климат",36,33,31,18,19,29,166,"https://api.индекс-городов.рф/uploads/city/emblem/704/thumb_706_fatezh.png","Курская область","Малый город"
"45",726,29,"Черноголовка",38.4047789482736,56.0184456696816,21.1,6,"условно комфортный климат",40,35,31,30,32,31,199,"https://api.индекс-городов.рф/uploads/city/emblem/726/thumb_729_chernogolovka.png","Московская область","Малый город"
"46",738,32,"Шахунья",46.6179743058658,57.672909022077,19.8,6,"условно комфортный климат",20,18,32,25,22,22,139,"https://api.индекс-городов.рф/uploads/city/emblem/738/thumb_741_shakhunia.png","Нижегородская область","Малый город"
"47",756,46,"Южно-Сухокумск",45.6497532637977,44.6585393243513,10.6,6,"условно комфортный климат",25,24,11,21,16,28,125,"https://api.индекс-городов.рф/uploads/city/emblem/756/thumb_759_yuzhno-sukhokumsk.gif","Республика Дагестан","Малый город"
"48",769,36,"Ясный",59.9024432464566,51.0128344751827,15.3,6,"условно комфортный климат",36,32,16,13,16,34,147,"https://api.индекс-городов.рф/uploads/city/emblem/769/thumb_772_yasny.png","Оренбургская область","Малый город"
"49",797,7,"Гусь-Хрустальный",40.6582871007107,55.6154255052022,53.6,4,"условно комфортный климат",27,27,21,34,31,32,172,"https://api.индекс-городов.рф/uploads/city/emblem/797/thumb_800_Gus-Khrustalny.gif","Владимирская область","Средний город"
"50",803,81,"Урус-Мартан",45.5386824217574,43.1317832729266,61.2,4,"условно комфортный климат",32,25,14,9,16,38,134,"https://api.индекс-городов.рф/uploads/city/emblem/803/thumb_806_Urus-Martan.png","Чеченская Республика","Средний город"
"51",836,43,"Горно-Алтайск",85.9475888350697,51.937609583223,63.8,4,"условно комфортный климат",36,24,23,23,22,34,162,"https://api.индекс-городов.рф/uploads/city/emblem/836/thumb_839_Gorno-Altaysk.gif","Республика Алтай","Средний город"
"52",867,29,"Ивантеевка",37.9184669264509,55.9744276084659,79.3,4,"условно комфортный климат",42,31,27,40,31,38,209,"https://api.индекс-городов.рф/uploads/city/emblem/867/thumb_870_Ivanteevka.gif","Московская область","Средний город"
"53",900,76,"Глазов",52.6431610066493,58.1481978582416,92.4,4,"условно комфортный климат",39,35,19,26,26,29,174,"https://api.индекс-городов.рф/uploads/city/emblem/900/thumb_903_Glazov.png","Удмуртская Республика","Средний город"
"54",932,29,"Жуковский",38.1095775585047,55.5743628327697,107.9,3,"условно комфортный климат",34,40,30,25,31,45,205,"https://api.индекс-городов.рф/uploads/city/emblem/932/thumb_935_Zhukovskiy.png","Московская область","Большой город"
"55",182,8,"Дубовка",44.7908212201304,49.054052490773,13.8,6,"условно комфортный климат",33,24,29,11,20,32,149,"https://api.индекс-городов.рф/uploads/city/emblem/182/thumb_182_Dubovka.png","Волгоградская область","Малый город"
"56",951,67,"Первоуральск",59.945720755769,56.8995927101936,122.2,3,"условно комфортный климат",30,24,30,18,27,40,169,"https://api.индекс-городов.рф/uploads/city/emblem/951/thumb_954_Pervouralsk.png","Свердловская область","Большой город"
"57",965,80,"Копейск",61.5983318307029,55.0969451949287,148.2,3,"условно комфортный климат",38,29,23,18,16,30,154,"https://api.индекс-городов.рф/uploads/city/emblem/965/thumb_968_Kopeysk.gif","Челябинская область","Большой город"
"58",999,36,"Орск",58.552181608376,51.1849085646061,227.9,3,"условно комфортный климат",34,29,12,14,23,34,146,"https://api.индекс-городов.рф/uploads/city/emblem/999/thumb_1002_orsk.gif","Оренбургская область","Большой город"
"59",1023,9,"Череповец",37.9034500007922,59.128688664238,316.5,2,"условно комфортный климат",42,33,24,29,30,35,193,"https://api.индекс-городов.рф/uploads/city/emblem/1023/thumb_1026_Cherepovets.png","Вологодская область","Крупный город"
"60",1030,79,"Сургут",73.4246123889855,61.2844658043571,373.9,2,"тяжелые климатические условия",32,25,19,27,36,30,169,"https://api.индекс-городов.рф/uploads/city/emblem/1030/thumb_1033_Surgut.png","Ханты-Мансийский автономный округ","Крупный город"
"61",1061,77,"Ульяновск",48.3854681684112,54.3195604595661,627.9,2,"условно комфортный климат",40,28,26,24,26,33,177,"https://api.индекс-городов.рф/uploads/city/emblem/1061/thumb_1064_Ulianovsk.png","Ульяновская область","Крупный город"
"62",1088,30,"Снежногорск",33.243741260732,69.1893127473353,12.6,6,"тяжелые климатические условия",43,37,37,22,24,24,187,"https://api.индекс-городов.рф/uploads/city/emblem/1088/thumb_1092_Snezhnogorsk.png","Мурманская область","Малый город"
"63",212,30,"Заполярный",30.8093051635104,69.4313224009648,14.9,6,"тяжелые климатические условия",49,33,20,26,18,21,167,"https://api.индекс-городов.рф/uploads/city/emblem/212/thumb_212_zapolyarny.png","Мурманская область","Малый город"
"64",242,10,"Калач",41.0011131735769,50.4267523191311,18.4,6,"условно комфортный климат",30,21,32,33,28,33,177,"https://api.индекс-городов.рф/uploads/city/emblem/242/thumb_243_Kalach.png","Воронежская область","Малый город"
"65",272,29,"Кашира",38.2230797421561,54.8292338819214,48,5,"условно комфортный климат",40,26,25,36,36,34,197,"https://api.индекс-городов.рф/uploads/city/emblem/272/thumb_273_Kashira.png","Московская область","Малый город"
"66",302,25,"Коммунар",30.4123260212358,59.6271963460722,22.5,6,"условно комфортный климат",40,40,26,25,17,27,175,"https://api.индекс-городов.рф/uploads/city/emblem/302/thumb_304_kommunar.png","Ленинградская область","Малый город"
"67",332,67,"Красноуфимск",57.7770188433856,56.6199382583732,38.1,5,"условно комфортный климат",30,25,16,22,27,43,163,"https://api.индекс-городов.рф/uploads/city/emblem/332/thumb_334_krasnoufimsk.png","Свердловская область","Малый город"
"68",361,26,"Лебедянь",39.1467718873261,53.0245455630438,19.2,6,"условно комфортный климат",40,27,27,30,24,29,177,"https://api.индекс-городов.рф/uploads/city/emblem/361/thumb_363_lebedyan.png","Липецкая область","Малый город"
"69",392,58,"Мамадыш",51.3979210699247,55.7085086552766,15.9,6,"условно комфортный климат",37,31,15,28,31,38,180,"https://api.индекс-городов.рф/uploads/city/emblem/392/thumb_394_mamadish.png","Республика Татарстан","Малый город"
"70",422,16,"Мосальск",34.9721667549878,54.4853712474224,4.2,7,"условно комфортный климат",18,32,14,29,16,25,134,"https://api.индекс-городов.рф/uploads/city/emblem/422/thumb_424_mosalsk.png","Калужская область","Малый город"
"71",451,78,"Николаевск-на-Амуре",140.721968459624,53.1424587534857,18.2,6,"тяжелые климатические условия",26,33,21,19,28,28,155,"https://api.индекс-городов.рф/uploads/city/emblem/451/thumb_453_nikolaevsk-na-amure.png","Хабаровский край","Малый город"
"72",481,15,"Озерск",22.0166891688899,54.4093551002595,3.8,7,"условно комфортный климат",33,39,27,29,27,24,179,"https://api.индекс-городов.рф/uploads/city/emblem/481/thumb_483_ozersk.png","Калининградская область","Малый город"
"73",512,65,"Петровск",45.3919110035536,52.3089605010285,28.5,5,"условно комфортный климат",23,27,12,25,22,27,136,"https://api.индекс-городов.рф/uploads/city/emblem/512/thumb_514_petrovsk.png","Саратовская область","Малый город"
"74",541,15,"Приморск",20.0041155402435,54.735039464331,2,7,"условно комфортный климат",31,36,49,12,16,41,185,"https://api.индекс-городов.рф/uploads/city/emblem/541/thumb_543_primorsk.png","Калининградская область","Малый город"
"75",573,14,"Саянск",102.180906639229,54.1119820144535,38.7,5,"условно комфортный климат",39,35,23,15,21,35,168,"https://api.индекс-городов.рф/uploads/city/emblem/573/thumb_575_Sayansk.png","Иркутская область","Малый город"
"76",602,14,"Слюдянка",103.691979413027,51.6525794975855,18.2,6,"условно комфортный климат",32,25,22,16,11,31,137,"https://api.индекс-городов.рф/uploads/city/emblem/602/thumb_604_slyudyanka.png","Иркутская область","Малый город"
"77",630,33,"Старая Русса",31.3564671913641,57.9915881446059,28,5,"условно комфортный климат",35,34,47,30,30,31,207,"https://api.индекс-городов.рф/uploads/city/emblem/630/thumb_632_staraya_russa.png","Новгородская область","Малый город"
"78",638,53,"Судак",34.9854161793721,44.851166333223,16.8,6,"условно комфортный климат",39,22,24,36,22,33,176,"https://api.индекс-городов.рф/uploads/city/emblem/638/thumb_640_sudak.png","Республика Крым","Малый город"
"79",661,18,"Таштагол",87.8924838183407,52.7829925209679,23.1,6,"условно комфортный климат",36,27,30,17,22,30,162,"https://api.индекс-городов.рф/uploads/city/emblem/661/thumb_663_Tashtagol.png","Кемеровская область","Малый город"
"80",692,32,"Урень",45.7938296006742,57.4671730700324,12.2,6,"условно комфортный климат",29,25,15,26,14,31,140,"https://api.индекс-городов.рф/uploads/city/emblem/692/thumb_694_uren.png","Нижегородская область","Малый город"
"81",722,74,"Чекалин",36.2417952981245,54.0974204300967,0.9,7,"условно комфортный климат",14,25,33,18,25,33,148,"https://api.индекс-городов.рф/uploads/city/emblem/722/thumb_725_chekalin.png","Тульская область","Малый город"
"82",752,29,"Электроугли",38.1889466108627,55.7273599501276,20.7,6,"условно комфортный климат",32,26,21,33,34,29,175,"https://api.индекс-городов.рф/uploads/city/emblem/752/thumb_755_elektrougli.png","Московская область","Малый город"
"83",782,25,"Кириши",32.0570588014355,59.4706050124115,50.8,4,"условно комфортный климат",37,43,21,26,27,34,188,"https://api.индекс-городов.рф/uploads/city/emblem/782/thumb_785_kirishi.png","Ленинградская область","Средний город"
"84",783,74,"Узловая",38.1511104522585,53.9842490389114,50.5,4,"условно комфортный климат",32,30,38,22,25,30,177,"https://api.индекс-городов.рф/uploads/city/emblem/783/thumb_786_uzlovaya.png","Тульская область","Средний город"
"85",812,8,"Михайловка",43.2181573430798,50.0760866787256,57.8,4,"условно комфортный климат",37,27,14,23,25,27,153,"https://api.индекс-городов.рф/uploads/city/emblem/812/thumb_815_Mikhaylovka.png","Волгоградская область","Средний город"
"86",841,58,"Лениногорск",52.4543345974636,54.5907379910115,62,4,"условно комфортный климат",50,30,23,26,25,33,187,"https://api.индекс-городов.рф/uploads/city/emblem/841/thumb_844_Leninogorsk.png","Республика Татарстан","Средний город"
"87",870,63,"Чапаевск",49.7864257993426,52.9440184501286,72.2,4,"условно комфортный климат",28,27,18,15,25,23,136,"https://api.индекс-городов.рф/uploads/city/emblem/870/thumb_873_Chapaevsk_2.png","Самарская область","Средний город"
"88",899,18,"Киселевск",86.6140086605232,54.0087370369725,88.2,4,"условно комфортный климат",32,30,17,15,26,37,157,"https://api.индекс-городов.рф/uploads/city/emblem/899/thumb_902_Kiselyovsk.png","Кемеровская область","Средний город"
"89",928,70,"Ессентуки",42.8738232804271,44.0480435041799,110.5,3,"условно комфортный климат",42,28,17,33,22,28,170,"https://api.индекс-городов.рф/uploads/city/emblem/928/thumb_931_Essentuki.png","Ставропольский край","Большой город"
"90",957,70,"Кисловодск",42.7351859325655,43.8860626557263,129.1,3,"условно комфортный климат",30,37,30,31,27,35,190,"https://api.индекс-городов.рф/uploads/city/emblem/957/thumb_960_Kislovodsk.png","Ставропольский край","Большой город"
"91",958,46,"Хасавюрт",46.5948016475353,43.2491114898476,142.7,3,"условно комфортный климат",42,26,10,15,19,35,147,"https://api.индекс-городов.рф/uploads/city/emblem/958/thumb_961_Khasavyurt.png","Республика Дагестан","Большой город"
"92",986,85,"Рыбинск",38.8209251152743,58.0583885475195,186.6,3,"условно комфортный климат",40,41,43,27,34,35,220,"https://api.индекс-городов.рф/uploads/city/emblem/986/thumb_989_Rybinsk.png","Ярославская область","Большой город"
"93",1015,81,"Грозный",45.6603051686074,43.3231450917575,301.3,2,"условно комфортный климат",42,32,40,26,40,38,218,"https://api.индекс-городов.рф/uploads/city/emblem/1015/thumb_1018_Grozny.png","Чеченская Республика","Крупный город"
"94",1044,15,"Калининград",20.4510597551696,54.7084898216094,482.4,2,"условно комфортный климат",38,37,37,33,31,38,214,"https://api.индекс-городов.рф/uploads/city/emblem/1044/thumb_1047_Kalinigrad.png","Калининградская область","Крупный город"
"95",1073,44,"Уфа",56.0522219903514,54.7506055499858,1120.5,1,"условно комфортный климат",37,22,40,21,24,35,179,"https://api.индекс-городов.рф/uploads/city/emblem/1073/thumb_1076_Ufa.png","Республика Башкортостан","Крупнейший город"
"96",1102,29,"Клин",36.7228639675834,56.3389985664364,79.4,4,"условно комфортный климат",35,24,31,32,36,31,189,"https://api.индекс-городов.рф/uploads/city/emblem/1102/thumb_1106_Klin.png","Московская область","Средний город"
"97",354,84,"Лабытнанги",66.3503148525382,66.6785265508828,26.2,5,"тяжелые климатические условия",22,25,41,21,28,24,161,"https://api.индекс-городов.рф/uploads/city/emblem/354/thumb_356_labytnangi.png","Ямало-Ненецкий автономный округ","Малый город"
"98",480,34,"Обь",82.6763220060466,54.999541740893,29.7,5,"условно комфортный климат",27,22,40,25,16,31,161,"https://api.индекс-городов.рф/uploads/city/emblem/480/thumb_482_ob.png","Новосибирская область","Малый город"
"99",927,26,"Елец",38.5155092683131,52.6200081194624,103.2,3,"условно комфортный климат",30,37,26,28,27,33,181,"https://api.индекс-городов.рф/uploads/city/emblem/927/thumb_930_Elets.png","Липецкая область","Большой город"
"100",956,29,"Серпухов",37.4117684373134,54.9210489494043,124.9,3,"условно комфортный климат",35,33,28,47,31,37,211,"https://api.индекс-городов.рф/uploads/city/emblem/956/thumb_959_Serpuhov.png","Московская область","Большой город"
"101",985,21,"Армавир",41.0989741936605,44.999168082889,190.2,3,"условно комфортный климат",41,32,18,27,31,30,179,"https://api.индекс-городов.рф/uploads/city/emblem/985/thumb_988_Armavir.png","Краснодарский край","Большой город"
"102",1014,44,"Стерлитамак",55.9549735004216,53.6421149279747,278.1,2,"условно комфортный климат",37,27,18,39,27,40,188,"https://api.индекс-городов.рф/uploads/city/emblem/1014/thumb_1017_Sterlitamak.png","Республика Башкортостан","Крупный город"
"103",280,25,"Кингисепп",28.6193915761689,59.3577768886188,45.9,5,"условно комфортный климат",40,39,26,27,33,35,200,"https://api.индекс-городов.рф/uploads/city/emblem/280/thumb_282_Kingisepp.gif","Ленинградская область","Малый город"
"104",76,10,"Бобров",40.0260289013388,51.093534931605,20.2,6,"условно комфортный климат",31,20,24,29,19,23,146,"https://api.индекс-городов.рф/uploads/city/emblem/76/thumb_76_bobrov.png","Воронежская область","Малый город"
"105",3,21,"Абинск",38.1588368269625,44.8716435179201,38.5,5,"условно комфортный климат",28,19,9,18,26,29,129,"https://api.индекс-городов.рф/uploads/city/emblem/3/thumb_3_Abinsk.jpg","Краснодарский край","Малый город"
"106",4,44,"Агидель",53.9916610871737,55.8774800262861,14.6,6,"условно комфортный климат",36,38,34,20,28,34,190,"https://api.индекс-городов.рф/uploads/city/emblem/4/thumb_4_Agidel.png","Республика Башкортостан","Малый город"
"107",16,66,"Александровск-Сахалинский",142.161674881729,50.8936205984159,9.3,6,"тяжелые климатические условия",10,23,32,18,19,34,136,"https://api.индекс-городов.рф/uploads/city/emblem/16/thumb_16_Aleksandrovsk-Sakhalinsky.png","Сахалинская область","Малый город"
"108",511,8,"Петров Вал",45.2171562558451,50.1384253548696,12.5,6,"условно комфортный климат",25,21,39,10,20,25,140,NA,"Волгоградская область","Малый город"
"109",38,4,"Ахтубинск",46.1723365791286,48.2800176582434,37,5,"условно комфортный климат",24,25,14,9,14,37,123,"https://api.индекс-городов.рф/uploads/city/emblem/38/thumb_38_akhtubinsk.png","Астраханская область","Малый город"
"110",204,75,"Заводоуковск",66.5361646275171,56.5013292287086,26.2,5,"условно комфортный климат",31,23,24,29,29,39,175,"https://api.индекс-городов.рф/uploads/city/emblem/204/thumb_204_Zavodoukovsk.png","Тюменская область","Малый город"
"111",237,70,"Ипатово",42.900877131683,45.7194430816332,23.6,6,"условно комфортный климат",35,27,12,22,25,30,151,"https://api.индекс-городов.рф/uploads/city/emblem/237/thumb_238_ipatovo.png","Ставропольский край","Малый город"
"112",243,8,"Калач-на-Дону",43.5350879173901,48.6905557549299,23.8,6,"условно комфортный климат",34,28,18,26,23,30,159,"https://api.индекс-городов.рф/uploads/city/emblem/243/thumb_244_Kalach-na-donu.png","Волгоградская область","Малый город"
"113",290,71,"Кирсанов",42.7531821701978,52.6500418597252,16.2,6,"условно комфортный климат",41,28,28,42,20,30,189,"https://api.индекс-городов.рф/uploads/city/emblem/290/thumb_292_Kirsanov.gif","Тамбовская область","Малый город"
"114",367,29,"Ликино-Дулево",38.9508548501673,55.7137174482153,29,5,"условно комфортный климат",31,19,26,29,28,28,161,"https://api.индекс-городов.рф/uploads/city/emblem/367/thumb_369_likino-dulevo.png","Московская область","Малый город"
"115",391,16,"Малоярославец",36.4637229247171,55.0135038992251,27.4,5,"условно комфортный климат",28,25,44,21,26,33,177,"https://api.индекс-городов.рф/uploads/city/emblem/391/thumb_393_maloyaroslavets.png","Калужская область","Малый город"
"116",421,71,"Моршанск",41.8064411108388,53.4402042928732,38.2,5,"условно комфортный климат",38,29,19,33,27,34,180,"https://api.индекс-городов.рф/uploads/city/emblem/421/thumb_423_morshansk.gif","Тамбовская область","Малый город"
"117",467,41,"Новосокольники",30.1551390160912,56.3384395779943,7.1,6,"условно комфортный климат",23,25,31,26,17,33,155,"https://api.индекс-городов.рф/uploads/city/emblem/467/thumb_469_novosokolniki.png","Псковская область","Малый город"
"118",500,39,"Оханск",55.3758015719694,57.7150761239603,7.1,6,"условно комфортный климат",25,20,24,16,26,32,143,"https://api.индекс-городов.рф/uploads/city/emblem/500/thumb_502_ohansk.png","Пермский край","Малый город"
"119",563,55,"Рузаевка",44.9501576603087,54.0651715825827,44.5,5,"условно комфортный климат",34,26,24,26,26,38,174,"https://api.индекс-городов.рф/uploads/city/emblem/563/thumb_565_Ruzaevka.png","Республика Мордовия","Малый город"
"120",571,69,"Сафоново",33.2362000407816,55.113312736895,41.5,5,"условно комфортный климат",35,35,40,19,32,34,195,"https://api.индекс-городов.рф/uploads/city/emblem/571/thumb_573_Safonovo.gif","Смоленская область","Малый город"
"121",658,84,"Тарко-Сале",77.7291733531601,64.9094807854363,21.6,6,"тяжелые климатические условия",29,33,40,33,31,37,203,"https://api.индекс-городов.рф/uploads/city/emblem/658/thumb_660_Tarko-sale.png","Ямало-Ненецкий автономный округ","Малый город"
"122",724,34,"Черепаново",83.3700557695794,54.2250418013437,19.4,6,"условно комфортный климат",22,27,32,19,14,31,145,"https://api.индекс-городов.рф/uploads/city/emblem/724/thumb_727_cherepanovo.png","Новосибирская область","Малый город"
"123",809,67,"Краснотурьинск",60.203572524592,59.7656575024478,56.6,4,"условно комфортный климат",41,32,21,22,39,40,195,"https://api.индекс-городов.рф/uploads/city/emblem/809/thumb_812_Krasnoturinsk.png","Свердловская область","Средний город"
"124",830,29,"Наро-Фоминск",36.727123421042,55.386942116204,63,4,"условно комфортный климат",35,25,36,33,35,34,198,"https://api.индекс-городов.рф/uploads/city/emblem/830/thumb_833_Naro-Fominsk.png","Московская область","Средний город"
"125",915,18,"Междуреченск",88.0892986124324,53.6912554105322,96.2,4,"условно комфортный климат",33,36,19,18,30,31,167,"https://api.индекс-городов.рф/uploads/city/emblem/915/thumb_918_Mezhdurechensk.gif","Кемеровская область","Средний город"
"126",936,46,"Каспийск",47.6219736288144,42.8822782081715,119.2,3,"условно комфортный климат",35,45,19,23,25,33,180,"https://api.индекс-городов.рф/uploads/city/emblem/936/thumb_939_Kaspiysk.png","Республика Дагестан","Большой город"
"127",976,67,"Каменск-Уральский",61.9363188057844,56.4025533832207,167.4,3,"условно комфортный климат",40,35,20,23,23,41,182,"https://api.индекс-городов.рф/uploads/city/emblem/976/thumb_979_Kamensk-Uralsky.png","Свердловская область","Большой город"
"128",988,66,"Южно-Сахалинск",142.738107935426,46.9525938041961,200.9,3,"условно комфортный климат",36,24,21,22,24,30,157,"https://api.индекс-городов.рф/uploads/city/emblem/988/thumb_991_Yuzhno-Sakhalinsk.png","Сахалинская область","Большой город"
"129",1075,63,"Самара",50.1534296153301,53.2689320007138,1163.4,1,"условно комфортный климат",29,33,27,27,20,27,163,"https://api.индекс-городов.рф/uploads/city/emblem/1075/thumb_1078_Samara.png","Самарская область","Крупнейший город"
"130",10,57,"Алагир",44.2210946938396,43.0474023145295,20,6,"условно комфортный климат",34,25,18,17,22,23,139,NA,"Республика Северная Осетия - Алания","Малый город"
"131",30,57,"Ардон",44.2910587444304,43.1748906738394,19.3,6,"условно комфортный климат",29,25,16,8,9,33,120,NA,"Республика Северная Осетия - Алания","Малый город"
"132",6,42,"Адыгейск",39.1957551117335,44.8792240864622,12.7,6,"условно комфортный климат",52,26,22,26,23,28,177,"https://api.индекс-городов.рф/uploads/city/emblem/6/thumb_6_Adygeysk.png","Республика Адыгея","Малый город"
"133",7,58,"Азнакаево",53.0743040102009,54.862181688611,34.6,5,"условно комфортный климат",39,29,16,28,26,39,177,"https://api.индекс-городов.рф/uploads/city/emblem/7/thumb_7_Aznakeevo.png","Республика Татарстан","Малый город"
"134",8,59,"Ак-Довурак",90.5995641506441,51.1783375714835,13.6,6,"условно комфортный климат",27,19,9,25,8,22,110,"https://api.индекс-городов.рф/uploads/city/emblem/8/thumb_8_Ak-Dovurak.png","Республика Тыва","Малый город"
"135",9,61,"Аксай",39.8660296063055,47.2722651443168,45.2,5,"условно комфортный климат",39,26,26,35,28,36,190,"https://api.индекс-городов.рф/uploads/city/emblem/9/thumb_9_Aksay.png","Ростовская область","Малый город"
"136",11,67,"Алапаевск",61.6763632930853,57.8267840385986,37.2,5,"условно комфортный климат",27,31,18,19,28,37,160,"https://api.индекс-городов.рф/uploads/city/emblem/11/thumb_11_Alapaevsk.png","Свердловская область","Малый город"
"137",12,82,"Алатырь",46.5799197558372,54.8426727563054,34.2,5,"условно комфортный климат",34,33,23,33,26,34,183,"https://api.индекс-городов.рф/uploads/city/emblem/12/thumb_12_Alatyr.png","Чувашская Республика","Малый город"
"138",14,1,"Алейск",82.7726436039505,52.4930824193266,29.2,5,"условно комфортный климат",44,24,34,18,16,30,166,"https://api.индекс-городов.рф/uploads/city/emblem/14/thumb_14_Aleysk.png","Алтайский край","Малый город"
"139",15,39,"Александровск",57.5726464864071,59.165724068095,12.2,6,"условно комфортный климат",17,27,17,20,24,34,139,"https://api.индекс-городов.рф/uploads/city/emblem/15/thumb_15_Aleksandrovsk.png","Пермский край","Малый город"
"140",17,5,"Алексеевка",38.6885170025982,50.6276450530444,38.2,5,"условно комфортный климат",42,26,15,28,29,27,167,"https://api.индекс-городов.рф/uploads/city/emblem/17/thumb_17_Alekseevka.png","Белгородская область","Малый город"
"141",18,14,"Алзамай",98.6601830877134,55.5473593252844,5.8,6,"условно комфортный климат",13,17,10,7,10,29,86,"https://api.индекс-городов.рф/uploads/city/emblem/18/thumb_18_Alzamay.png","Иркутская область","Малый город"
"142",20,53,"Алушта",34.401871960728,44.6745188658312,30,5,"условно комфортный климат",43,24,36,41,26,27,197,"https://api.индекс-городов.рф/uploads/city/emblem/20/thumb_20_Alushta.png","Республика Крым","Малый город"
"143",21,78,"Амурск",136.877106731159,50.2832044188446,39,5,"условно комфортный климат",44,31,29,14,26,28,172,"https://api.индекс-городов.рф/uploads/city/emblem/21/thumb_21_Amursk.png","Хабаровский край","Малый город"
"144",22,83,"Анадырь",177.416588025674,64.7196108620861,15.8,6,"тяжелые климатические условия",47,30,20,26,24,34,181,"https://api.индекс-городов.рф/uploads/city/emblem/22/thumb_22_Anadyr.png","Чукотский автономный округ","Малый город"
"145",23,72,"Андреаполь",32.2617516819589,56.650962479834,7,6,"условно комфортный климат",29,27,28,19,17,31,151,"https://api.индекс-городов.рф/uploads/city/emblem/23/thumb_23_Andreapol.png","Тверская область","Малый город"
"146",24,66,"Анива",142.525135374907,46.7203940675103,9.4,6,"условно комфортный климат",33,30,20,27,20,33,163,"https://api.индекс-городов.рф/uploads/city/emblem/24/thumb_24_Aniva.png","Сахалинская область","Малый город"
"147",25,29,"Апрелевка",37.0594715885242,55.5441803230307,29.1,5,"условно комфортный климат",40,30,26,29,29,34,188,"https://api.индекс-городов.рф/uploads/city/emblem/25/thumb_25_Aprelevka.gif","Московская область","Малый город"
"148",26,21,"Апшеронск",39.7271857714877,44.4543284634889,39.8,5,"условно комфортный климат",24,21,15,24,19,28,131,"https://api.индекс-городов.рф/uploads/city/emblem/26/thumb_26_Apsheronsk.png","Краснодарский край","Малый город"
"149",27,67,"Арамиль",60.8508957256104,56.6962960160575,15.2,6,"условно комфортный климат",34,38,14,23,25,32,166,"https://api.индекс-городов.рф/uploads/city/emblem/27/thumb_27_Aramil.png","Свердловская область","Малый город"
"150",28,81,"Аргун",45.8849424580782,43.2899189529315,38.2,5,"условно комфортный климат",28,21,13,16,16,30,124,"https://api.индекс-городов.рф/uploads/city/emblem/28/thumb_28_Argun.png","Чеченская Республика","Малый город"
"151",29,55,"Ардатов",46.2429759258021,54.8445242618771,8.5,6,"условно комфортный климат",21,20,11,16,16,33,117,"https://api.индекс-городов.рф/uploads/city/emblem/29/thumb_29_Ardatov.gif","Республика Мордовия","Малый город"
"152",33,58,"Арск",49.8750758711751,56.0798981179924,20.5,6,"условно комфортный климат",36,27,18,30,26,35,172,"https://api.индекс-городов.рф/uploads/city/emblem/33/thumb_33_Arsk.png","Республика Татарстан","Малый город"
"153",34,22,"Артемовск",93.4352611958582,54.3467301612224,1.6,7,"условно комфортный климат",25,21,32,8,14,32,132,"https://api.индекс-городов.рф/uploads/city/emblem/34/thumb_34_Artemovsk.png","Красноярский край","Малый город"
"154",35,67,"Артемовский",61.9027623129467,57.3301426597932,30.4,5,"условно комфортный климат",38,26,23,18,22,39,166,"https://api.индекс-городов.рф/uploads/city/emblem/35/thumb_35_artemovsky.png","Свердловская область","Малый город"
"155",36,73,"Асино",86.1431697188653,56.9903080873578,24.1,6,"условно комфортный климат",28,25,19,14,15,31,132,"https://api.индекс-городов.рф/uploads/city/emblem/36/thumb_36_asino.png","Томская область","Малый город"
"156",37,65,"Аткарск",45.0015429840908,51.8760216015908,24.7,5,"условно комфортный климат",36,25,19,27,23,35,165,"https://api.индекс-городов.рф/uploads/city/emblem/37/thumb_37_atkarsk.png","Саратовская область","Малый город"
"157",39,80,"Аша",57.2490897359912,54.9963119484286,29.3,5,"условно комфортный климат",33,28,21,17,18,32,149,"https://api.индекс-городов.рф/uploads/city/emblem/39/thumb_39_asha.png","Челябинская область","Малый город"
"158",41,45,"Бабушкин",105.864831031252,51.7096095726426,4.5,7,"условно комфортный климат",31,25,25,5,12,18,116,"https://api.индекс-городов.рф/uploads/city/emblem/41/thumb_41_babushkin.png","Республика Бурятия","Малый город"
"159",42,58,"Бавлы",53.2680966671574,54.3998721741382,22.1,6,"условно комфортный климат",40,28,19,30,21,39,177,"https://api.индекс-городов.рф/uploads/city/emblem/42/thumb_42_bavly.png","Республика Татарстан","Малый город"
"160",43,15,"Багратионовск",20.6401718925426,54.3842310297235,6.3,6,"условно комфортный климат",34,36,24,25,21,24,164,"https://api.индекс-городов.рф/uploads/city/emblem/43/thumb_43_bagrationovsk.gif","Калининградская область","Малый город"
"161",44,14,"Байкальск",104.138830526356,51.512511614724,12.5,6,"условно комфортный климат",24,27,27,12,19,31,140,"https://api.индекс-городов.рф/uploads/city/emblem/44/thumb_44_baikalsk.gif","Иркутская область","Малый город"
"162",45,44,"Баймак",58.3188953256587,52.5941289096612,17.3,6,"условно комфортный климат",35,27,11,16,22,37,148,"https://api.индекс-городов.рф/uploads/city/emblem/45/thumb_45_baimak.png","Республика Башкортостан","Малый город"
"163",47,48,"Баксан",43.5410874450738,43.6855088612203,38.4,5,"условно комфортный климат",34,20,21,12,32,40,159,"https://api.индекс-городов.рф/uploads/city/emblem/47/thumb_47_Baksan.png","Республика Кабардино-Балкария","Малый город"
"164",48,16,"Балабаново",36.6620238512371,55.1827199757616,25.8,5,"условно комфортный климат",33,32,14,18,25,24,146,"https://api.индекс-городов.рф/uploads/city/emblem/48/thumb_48_Balabanovo.png","Калужская область","Малый город"
"165",49,32,"Балахна",43.5818181220927,56.4999948745768,48.7,5,"условно комфортный климат",31,27,25,23,29,29,164,"https://api.индекс-городов.рф/uploads/city/emblem/49/thumb_49_balakhna.png","Нижегородская область","Малый город"
"166",50,12,"Балей",116.647684670495,51.5670880525746,10.9,6,"условно комфортный климат",17,18,12,6,14,25,92,"https://api.индекс-городов.рф/uploads/city/emblem/50/thumb_50_baley.png","Забайкальский край","Малый город"
"167",52,34,"Барабинск",78.3309505080317,55.3487741188273,28.8,5,"условно комфортный климат",18,20,27,11,21,38,135,"https://api.индекс-городов.рф/uploads/city/emblem/52/thumb_52_barabinsk.png","Новосибирская область","Малый город"
"168",53,77,"Барыш",47.1281079209676,53.6446108412441,15.8,6,"условно комфортный климат",19,29,21,26,25,38,158,"https://api.индекс-городов.рф/uploads/city/emblem/53/thumb_53_barysh.png","Ульяновская область","Малый город"
"169",54,53,"Бахчисарай",33.8708463927439,44.7519066440748,26.6,5,"условно комфортный климат",28,21,33,28,21,28,159,"https://api.индекс-городов.рф/uploads/city/emblem/54/thumb_54_bakhchisaray.png","Республика Крым","Малый город"
"170",55,72,"Бежецк",36.6978207709527,57.7845406360262,20.8,6,"условно комфортный климат",26,26,25,32,22,28,159,"https://api.индекс-городов.рф/uploads/city/emblem/55/thumb_55_bezhetsk.png","Тверская область","Малый город"
"171",56,61,"Белая Калитва",40.7787855707971,48.1777369401495,39.8,5,"условно комфортный климат",44,33,23,27,28,24,179,"https://api.индекс-городов.рф/uploads/city/emblem/56/thumb_56_belaya_kalitva.png","Ростовская область","Малый город"
"172",57,19,"Белая Холуница",50.8402828450504,58.842992253724,10.3,6,"условно комфортный климат",24,21,17,25,17,30,134,"https://api.индекс-городов.рф/uploads/city/emblem/57/thumb_57_belaya_kholunitsa.gif","Кировская область","Малый город"
"173",58,74,"Белев",36.1287958527438,53.808253892859,12.9,6,"условно комфортный климат",31,27,29,37,24,30,178,"https://api.индекс-городов.рф/uploads/city/emblem/58/thumb_58_belev.png","Тульская область","Малый город"
"174",59,38,"Белинский",43.406406752633,52.9666965756313,7.6,6,"условно комфортный климат",42,20,37,23,15,26,163,"https://api.индекс-городов.рф/uploads/city/emblem/59/thumb_59_belinsky.png","Пензенская область","Малый город"
"175",60,53,"Белогорск",34.5794214393169,45.049064871137,16.4,6,"условно комфортный климат",17,24,11,17,13,30,112,"https://api.индекс-городов.рф/uploads/city/emblem/60/thumb_60_belozersk.png","Республика Крым","Малый город"
"176",65,79,"Белоярский",66.7550726239039,63.6843795579891,19.5,6,"тяжелые климатические условия",44,30,21,23,34,27,179,"https://api.индекс-городов.рф/uploads/city/emblem/65/thumb_65_beloyarsky.png","Ханты-Мансийский автономный округ","Малый город"
"177",66,72,"Белый",32.9441073595711,55.845621655268,3.2,7,"условно комфортный климат",23,23,22,26,24,26,144,"https://api.индекс-городов.рф/uploads/city/emblem/66/thumb_66_bely.png","Тверская область","Малый город"
"178",67,18,"Березовский",86.2490771944895,55.6300202628119,45.8,5,"условно комфортный климат",43,24,27,11,23,32,160,"https://api.индекс-городов.рф/uploads/city/emblem/67/thumb_67_berezovsky.png","Кемеровская область","Малый город"
"179",68,57,"Беслан",44.5298033132503,43.1924343496651,37.2,5,"условно комфортный климат",27,28,21,17,30,34,157,"https://api.индекс-городов.рф/uploads/city/emblem/68/thumb_68_beslan.png","Республика Северная Осетия - Алания","Малый город"
"180",69,78,"Бикин",134.260107757406,46.8252998658741,15.9,6,"условно комфортный климат",39,26,18,9,22,26,140,"https://api.индекс-городов.рф/uploads/city/emblem/69/thumb_69_bikin.png","Хабаровский край","Малый город"
"181",70,83,"Билибино",166.449001932086,68.0624607516313,5.3,6,"тяжелые климатические условия",28,29,16,19,19,31,142,"https://api.индекс-городов.рф/uploads/city/emblem/70/thumb_70_bilibino.png","Чукотский автономный округ","Малый город"
"182",71,44,"Бирск",55.5281391005379,55.4080180073182,46.4,5,"условно комфортный климат",38,28,21,24,29,37,177,"https://api.индекс-городов.рф/uploads/city/emblem/71/thumb_71_birsk.png","Республика Башкортостан","Малый город"
"183",72,14,"Бирюсинск",97.8388697068538,55.9635911958934,8.4,6,"условно комфортный климат",29,15,18,11,8,28,109,"https://api.индекс-городов.рф/uploads/city/emblem/72/thumb_72_biryusinsk.gif","Иркутская область","Малый город"
"184",73,5,"Бирюч",38.3957264758077,50.6522195428766,7.3,6,"условно комфортный климат",43,22,20,32,18,26,161,"https://api.индекс-городов.рф/uploads/city/emblem/73/thumb_73_biryuch.png","Белгородская область","Малый город"
"185",75,70,"Благодарный",43.4338982727752,45.0973265596497,30.5,5,"условно комфортный климат",35,20,6,23,25,34,143,"https://api.индекс-городов.рф/uploads/city/emblem/75/thumb_75_blagodarny.png","Ставропольский край","Малый город"
"186",77,67,"Богданович",62.0463071844395,56.7793539233834,29.1,5,"условно комфортный климат",38,32,26,25,28,37,186,"https://api.индекс-городов.рф/uploads/city/emblem/77/thumb_77_bogdanovich.png","Свердловская область","Малый город"
"187",78,74,"Богородицк",38.1312717435819,53.7640007576966,30.8,5,"условно комфортный климат",22,25,26,19,29,31,152,"https://api.индекс-городов.рф/uploads/city/emblem/78/thumb_78_bogoroditsk.png","Тульская область","Малый город"
"188",79,32,"Богородск",43.5192311519334,56.1118235238032,33.9,5,"условно комфортный климат",36,26,35,34,25,28,184,"https://api.индекс-городов.рф/uploads/city/emblem/79/thumb_79_Bogorodsk_rayon.png","Нижегородская область","Малый город"
"189",80,22,"Боготол",89.5110006612029,56.2134695999936,19.8,6,"условно комфортный климат",25,26,24,16,18,37,146,"https://api.индекс-городов.рф/uploads/city/emblem/80/thumb_80_bogotol.png","Красноярский край","Малый город"
"190",81,10,"Богучар",40.539118289083,49.9335507276636,11.2,6,"условно комфортный климат",42,27,19,29,25,32,174,"https://api.индекс-городов.рф/uploads/city/emblem/81/thumb_81_boguchar.png","Воронежская область","Малый город"
"191",82,14,"Бодайбо",114.221143718958,57.8657231562111,11.9,6,"тяжелые климатические условия",21,33,37,12,21,37,161,"https://api.индекс-городов.рф/uploads/city/emblem/82/thumb_82_bodaibo.png","Иркутская область","Малый город"
"192",84,58,"Болгар",49.0433021088702,54.9698584318837,8.4,6,"условно комфортный климат",41,18,21,24,20,29,153,"https://api.индекс-городов.рф/uploads/city/emblem/84/thumb_84_bolgar.png","Республика Татарстан","Малый город"
"193",85,72,"Бологое",34.0797628304506,57.8724136279536,20.7,6,"условно комфортный климат",35,28,23,16,24,38,164,"https://api.индекс-городов.рф/uploads/city/emblem/85/thumb_85_bologoe.gif","Тверская область","Малый город"
"194",86,34,"Болотное",84.392242424346,55.6688716031852,15.7,6,"условно комфортный климат",23,30,17,12,10,35,127,"https://api.индекс-городов.рф/uploads/city/emblem/86/thumb_86_bolotnoe.png","Новосибирская область","Малый город"
"195",87,74,"Болохово",37.8336077683395,54.0785809888086,9,6,"условно комфортный климат",29,24,45,24,20,22,164,"https://api.индекс-городов.рф/uploads/city/emblem/87/thumb_87_bolokhovo.gif","Тульская область","Малый город"
"196",88,37,"Болхов",36.0056813746702,53.442359469021,11,6,"условно комфортный климат",30,24,16,32,8,30,140,"https://api.индекс-городов.рф/uploads/city/emblem/88/thumb_88_bolkhov.png","Орловская область","Малый город"
"197",90,12,"Борзя",116.506592160441,50.3847629392893,29.2,5,"условно комфортный климат",35,24,8,10,20,27,124,"https://api.индекс-городов.рф/uploads/city/emblem/90/thumb_90_borzya.png","Забайкальский край","Малый город"
"198",93,29,"Бронницы",38.2480969928773,55.4161514798674,22.6,6,"условно комфортный климат",35,23,24,31,35,31,179,"https://api.индекс-городов.рф/uploads/city/emblem/93/thumb_93_bronnitsy.png","Московская область","Малый город"
"199",94,36,"Бугуруслан",52.4275534355279,53.6373575556415,48.7,5,"условно комфортный климат",34,21,18,18,31,37,159,"https://api.индекс-городов.рф/uploads/city/emblem/94/thumb_94_buguruslan.png","Оренбургская область","Малый город"
"200",95,58,"Буинск",48.287743542112,54.9739893794304,20.7,6,"условно комфортный климат",37,23,16,25,28,33,162,"https://api.индекс-городов.рф/uploads/city/emblem/95/thumb_95_buinsk.png","Республика Татарстан","Малый город"
"201",96,20,"Буй",41.5431461261405,58.4716522054629,23.6,6,"условно комфортный климат",29,33,35,29,34,26,186,"https://api.индекс-городов.рф/uploads/city/emblem/96/thumb_96_Buy.png","Костромская область","Малый город"
"202",97,10,"Бутурлиновка",40.5975990296201,50.8260930134188,24.1,6,"условно комфортный климат",40,21,16,22,20,25,144,"https://api.индекс-городов.рф/uploads/city/emblem/97/thumb_97_buturlinovka.png","Воронежская область","Малый город"
"203",98,33,"Валдай",33.2290881766644,57.9816126617872,14.1,6,"условно комфортный климат",28,33,39,29,31,37,197,"https://api.индекс-городов.рф/uploads/city/emblem/98/thumb_98_Valday.png","Новгородская область","Малый город"
"204",99,5,"Валуйки",38.1131127762535,50.1930284576121,34.2,5,"условно комфортный климат",39,23,25,27,23,31,168,"https://api.индекс-городов.рф/uploads/city/emblem/99/thumb_99_valuyki.png","Белгородская область","Малый город"
"205",100,69,"Велиж",31.1843506165301,55.6004270135345,6.7,6,"условно комфортный климат",17,23,42,8,23,34,147,"https://api.индекс-городов.рф/uploads/city/emblem/100/thumb_100_velizh.gif","Смоленская область","Малый город"
"206",102,3,"Вельск",42.1071911563563,61.0603634979004,22.3,6,"условно комфортный климат",25,23,14,24,32,13,131,"https://api.индекс-городов.рф/uploads/city/emblem/102/thumb_102_velsk.png","Архангельская область","Малый город"
"207",103,74,"Венев",38.2504198943426,54.3504397850162,14,6,"условно комфортный климат",40,30,23,33,27,34,187,"https://api.индекс-городов.рф/uploads/city/emblem/103/thumb_103_venev.png","Тульская область","Малый город"
"208",104,39,"Верещагино",54.6555144278142,58.0781733854614,21.6,6,"условно комфортный климат",30,25,48,16,27,40,186,"https://api.индекс-городов.рф/uploads/city/emblem/104/thumb_104_vereschagino.png","Пермский край","Малый город"
"209",105,29,"Верея",36.1871612129897,55.3452162550186,5,6,"условно комфортный климат",34,16,32,37,31,30,180,"https://api.индекс-городов.рф/uploads/city/emblem/105/thumb_105_vereya.png","Московская область","Малый город"
"210",106,80,"Верхнеуральск",59.221814982329,53.8716960330713,9.3,6,"условно комфортный климат",43,26,28,25,23,33,178,"https://api.индекс-городов.рф/uploads/city/emblem/106/thumb_106_verhneuralsk.png","Челябинская область","Малый город"
"211",107,67,"Верхний Тагил",59.9388863478222,57.3675997092251,10.7,6,"условно комфортный климат",29,27,21,32,27,33,169,"https://api.индекс-городов.рф/uploads/city/emblem/107/thumb_107_verkhny_tagil.png","Свердловская область","Малый город"
"212",109,67,"Верхняя Салда",60.5514567499997,58.0300158795739,41.5,5,"условно комфортный климат",38,29,24,22,29,39,181,"https://api.индекс-городов.рф/uploads/city/emblem/109/thumb_109_verhnya_salda.png","Свердловская область","Малый город"
"213",110,67,"Верхняя Тура",59.8178197773644,58.355948091963,9,6,"условно комфортный климат",25,22,16,19,21,26,129,"https://api.индекс-городов.рф/uploads/city/emblem/110/thumb_110_verkhnya_tura.png","Свердловская область","Малый город"
"214",112,56,"Верхоянск",133.400431044296,67.5506348491817,1.1,7,"тяжелые климатические условия",16,22,2,16,7,14,77,"https://api.индекс-городов.рф/uploads/city/emblem/112/thumb_112_verhoyansk.gif","Республика Саха (Якутия)","Малый город"
"215",113,72,"Весьегонск",37.2567338408271,58.6594172667774,6.1,6,"условно комфортный климат",32,24,17,29,18,41,161,"https://api.индекс-городов.рф/uploads/city/emblem/113/thumb_113_vesiegonsk.png","Тверская область","Малый город"
"216",114,32,"Ветлуга",45.7814160040566,57.8567027486776,8.5,6,"условно комфортный климат",29,21,27,29,17,35,158,"https://api.индекс-городов.рф/uploads/city/emblem/114/thumb_114_vetluga.png","Нижегородская область","Малый город"
"217",115,56,"Вилюйск",121.635869258557,63.7433358720401,11.2,6,"тяжелые климатические условия",20,21,9,11,9,15,85,"https://api.индекс-городов.рф/uploads/city/emblem/115/thumb_115_vilyuysk.png","Республика Саха (Якутия)","Малый город"
"218",116,14,"Вихоревка",101.174744529726,56.1252179445385,21,6,"условно комфортный климат",29,23,21,14,17,27,131,"https://api.индекс-городов.рф/uploads/city/emblem/116/thumb_116_vichorevka.png","Иркутская область","Малый город"
"219",117,13,"Вичуга",41.9139134804391,57.2058925082165,33.8,5,"условно комфортный климат",39,29,27,29,26,25,175,"https://api.индекс-городов.рф/uploads/city/emblem/117/thumb_117_vichuga.png","Ивановская область","Малый город"
"220",118,20,"Волгореченск",41.1677205525911,57.4453017905576,16.4,6,"условно комфортный климат",48,31,19,27,23,32,180,"https://api.индекс-городов.рф/uploads/city/emblem/118/thumb_118_volgorechensk.gif","Костромская область","Малый город"
"221",119,32,"Володарск",43.1814866177671,56.2197956225465,9.9,6,"условно комфортный климат",36,23,22,21,14,24,140,"https://api.индекс-городов.рф/uploads/city/emblem/119/thumb_119_volodarsk.png","Нижегородская область","Малый город"
"222",120,29,"Волоколамск",35.9446300486177,56.0242563612245,19.2,6,"условно комфортный климат",37,27,29,30,33,34,190,"https://api.индекс-городов.рф/uploads/city/emblem/120/thumb_120_volokolamsk.png","Московская область","Малый город"
"223",123,67,"Волчанск",60.0564095745994,59.9014883909027,8.6,6,"условно комфортный климат",29,27,24,19,21,25,145,"https://api.индекс-городов.рф/uploads/city/emblem/123/thumb_123_volchansk.png","Свердловская область","Малый город"
"224",124,32,"Ворсма",43.291061606755,55.9870333920921,10.3,6,"условно комфортный климат",30,24,44,20,25,24,167,"https://api.индекс-городов.рф/uploads/city/emblem/124/thumb_124_vorsma.png","Нижегородская область","Малый город"
"225",125,52,"Вуктыл",57.3419564353437,63.8427058940153,9.8,6,"тяжелые климатические условия",40,37,29,15,23,36,180,"https://api.индекс-городов.рф/uploads/city/emblem/125/thumb_125_vuktyl.png","Республика Коми","Малый город"
"226",126,29,"Высоковск",36.5561149005565,56.3158273371322,10.4,6,"условно комфортный климат",25,24,33,34,26,30,172,"https://api.индекс-городов.рф/uploads/city/emblem/126/thumb_126_vysokovsk.gif","Московская область","Малый город"
"227",127,25,"Высоцк",28.585674632925,60.6118180585456,1.1,7,"условно комфортный климат",21,35,30,22,20,29,157,"https://api.индекс-городов.рф/uploads/city/emblem/127/thumb_127_vysotsk.gif","Ленинградская область","Малый город"
"228",128,9,"Вытегра",36.446715097011,61.0106413575845,10.3,6,"условно комфортный климат",18,26,29,21,19,23,136,"https://api.индекс-городов.рф/uploads/city/emblem/128/thumb_128_vyterga.gif","Вологодская область","Малый город"
"229",129,72,"Вышний Волочек",34.560342572348,57.586222273615,46.2,5,"условно комфортный климат",35,23,19,23,26,24,150,"https://api.индекс-городов.рф/uploads/city/emblem/129/thumb_129_vyshny_volochek.png","Тверская область","Малый город"
"230",130,78,"Вяземский",134.742556884502,47.5352303194381,12.9,6,"условно комфортный климат",30,26,26,12,21,21,136,"https://api.индекс-городов.рф/uploads/city/emblem/130/thumb_130_vyazemsky.gif","Хабаровский край","Малый город"
"231",131,7,"Вязники",42.1550458757457,56.2290388853848,35,5,"условно комфортный климат",30,30,24,31,23,28,166,"https://api.индекс-городов.рф/uploads/city/emblem/131/thumb_131_vyazniki.png","Владимирская область","Малый город"
"232",132,19,"Вятские Поляны",51.0541374415154,56.2359727581681,32.1,5,"условно комфортный климат",34,30,24,31,32,24,175,"https://api.индекс-городов.рф/uploads/city/emblem/132/thumb_132_vyatskie_polyany.png","Кировская область","Малый город"
"233",133,67,"Карпинск",59.9694551595907,59.7578763338999,26.2,5,"условно комфортный климат",19,25,20,15,26,36,141,"https://api.индекс-городов.рф/uploads/city/emblem/133/thumb_133_karpinsk.png","Свердловская область","Малый город"
"234",134,13,"Гаврилов Посад",40.1189704194563,56.5605272237544,5.6,6,"условно комфортный климат",26,17,37,32,21,29,162,"https://api.индекс-городов.рф/uploads/city/emblem/134/thumb_134_gavrilov_posad.gif","Ивановская область","Малый город"
"235",135,85,"Гаврилов-Ям",39.8490708310188,57.3096917125865,16.7,6,"условно комфортный климат",32,29,18,21,18,33,151,"https://api.индекс-городов.рф/uploads/city/emblem/135/thumb_135_gavrilov_yam.png","Ярославская область","Малый город"
"236",136,69,"Гагарин",34.9911731737802,55.5549038592466,28.8,5,"условно комфортный климат",35,42,39,29,26,27,198,"https://api.индекс-городов.рф/uploads/city/emblem/136/thumb_136_gagarin.png","Смоленская область","Малый город"
"237",137,36,"Гай",58.4653052918001,51.4685935394138,34.2,5,"условно комфортный климат",48,37,9,22,20,38,174,"https://api.индекс-городов.рф/uploads/city/emblem/137/thumb_137_gai.gif","Оренбургская область","Малый город"
"238",138,20,"Галич",42.3676129715384,58.3814803229035,16.8,6,"условно комфортный климат",27,30,29,30,24,30,170,"https://api.индекс-городов.рф/uploads/city/emblem/138/thumb_138_Galich.png","Костромская область","Малый город"
"239",140,41,"Гдов",27.8270107758064,58.7414775876602,3.4,7,"условно комфортный климат",30,38,44,36,29,27,204,"https://api.индекс-городов.рф/uploads/city/emblem/140/thumb_140_gdov.png","Псковская область","Малый город"
"240",141,29,"Голицыно",36.9796048632066,55.6156864160582,17.4,6,"условно комфортный климат",39,29,33,41,26,35,203,"https://api.индекс-городов.рф/uploads/city/emblem/141/thumb_141_golytsyno.png","Московская область","Малый город"
"241",142,32,"Горбатов",43.0444890172306,56.1394874346418,1.9,7,"условно комфортный климат",26,35,26,16,21,22,146,"https://api.индекс-городов.рф/uploads/city/emblem/142/thumb_142_gorbatov.png","Нижегородская область","Малый город"
"242",143,39,"Горнозаводск",58.3229066632546,58.375967048482,11.3,6,"условно комфортный климат",30,34,17,20,25,34,160,"https://api.индекс-городов.рф/uploads/city/emblem/143/thumb_143_gornozavodsk.png","Пермский край","Малый город"
"243",144,1,"Горняк",81.4525227811946,50.9947055301199,12.4,6,"условно комфортный климат",24,27,17,17,14,28,127,"https://api.индекс-городов.рф/uploads/city/emblem/144/thumb_144_gornyak.png","Алтайский край","Малый город"
"244",145,32,"Городец",43.4787550582123,56.647222166847,29.9,5,"условно комфортный климат",39,23,25,23,28,33,171,"https://api.индекс-городов.рф/uploads/city/emblem/145/thumb_145_gorodets.png","Нижегородская область","Малый город"
"245",146,38,"Городище",45.7025057799418,53.2737310173739,7.8,6,"условно комфортный климат",21,16,17,20,18,28,120,"https://api.индекс-городов.рф/uploads/city/emblem/146/thumb_146_gorodische.png","Пензенская область","Малый город"
"246",148,7,"Гороховец",42.7099694407885,56.2021005292521,12.7,6,"условно комфортный климат",35,32,35,38,28,31,199,"https://api.индекс-городов.рф/uploads/city/emblem/148/thumb_148_gorokhovets.png","Владимирская область","Малый город"
"247",149,21,"Горячий Ключ",39.1420994679615,44.6343781739259,39,5,"условно комфортный климат",42,21,29,31,24,22,169,"https://api.индекс-городов.рф/uploads/city/emblem/149/thumb_149_goryachy_klyuch.png","Краснодарский край","Малый город"
"248",154,39,"Губаха",57.5728157511238,58.849345444662,19.5,6,"условно комфортный климат",32,31,17,13,30,29,152,"https://api.индекс-городов.рф/uploads/city/emblem/154/thumb_154_gubakha.png","Пермский край","Малый город"
"249",155,84,"Губкинский",76.4640632804983,64.4407859926976,28.6,5,"тяжелые климатические условия",34,26,15,24,23,40,162,"https://api.индекс-городов.рф/uploads/city/emblem/155/thumb_155_gubkinsky.png","Ямало-Ненецкий автономный округ","Малый город"
"250",156,21,"Гулькевичи",40.7030195327708,45.3631648423756,34.2,5,"условно комфортный климат",23,23,17,25,18,31,137,"https://api.индекс-городов.рф/uploads/city/emblem/156/thumb_156_gulkevichi.png","Краснодарский край","Малый город"
"251",157,18,"Гурьевск",85.9354024002164,54.2776839888882,22.6,6,"условно комфортный климат",25,26,20,19,25,28,143,"https://api.индекс-городов.рф/uploads/city/emblem/157/thumb_157_gurievsk.png","Кемеровская область","Малый город"
"252",158,15,"Гурьевск",20.613705051873,54.7767386905043,18.3,6,"условно комфортный климат",43,30,22,21,22,25,163,"https://api.индекс-городов.рф/uploads/city/emblem/158/thumb_158_guryevsk.png","Калининградская область","Малый город"
"253",159,15,"Гусев",22.1836193809853,54.5770408709012,28.3,5,"условно комфортный климат",36,33,28,23,34,32,186,"https://api.индекс-городов.рф/uploads/city/emblem/159/thumb_159_gusev.png","Калининградская область","Малый город"
"254",160,45,"Гусиноозерск",106.509610034446,51.2965629419801,23.1,6,"условно комфортный климат",23,27,20,13,26,37,146,"https://api.индекс-городов.рф/uploads/city/emblem/160/thumb_160_gusinoozersk.png","Республика Бурятия","Малый город"
"255",161,44,"Давлеканово",55.0287021796646,54.20989504156,23.5,6,"условно комфортный климат",37,22,17,26,14,28,144,"https://api.индекс-городов.рф/uploads/city/emblem/161/thumb_161_Davlekanovo_rayon.png","Республика Башкортостан","Малый город"
"256",162,23,"Далматово",62.9461994934791,56.263317685732,12.4,6,"условно комфортный климат",40,29,38,17,12,21,157,"https://api.индекс-городов.рф/uploads/city/emblem/162/thumb_162_dalmatovo.gif","Курганская область","Малый город"
"257",163,40,"Дальнегорск",135.53373239033,44.5678997019752,34.5,5,"условно комфортный климат",26,20,28,12,16,24,126,"https://api.индекс-городов.рф/uploads/city/emblem/163/thumb_163_dalnegorsk.png","Приморский край","Малый город"
"258",164,40,"Дальнереченск",133.742857455198,45.9147469659363,25.5,5,"условно комфортный климат",26,21,19,14,19,30,129,"https://api.индекс-городов.рф/uploads/city/emblem/164/thumb_164_dalnerechensk.png","Приморский край","Малый город"
"259",165,85,"Данилов",40.1721822049458,58.1882687236333,14.7,6,"условно комфортный климат",23,29,29,22,19,35,157,"https://api.индекс-городов.рф/uploads/city/emblem/165/thumb_165_danilov.png","Ярославская область","Малый город"
"260",166,26,"Данков",39.1431154407549,53.2476697445656,18.8,6,"условно комфортный климат",33,29,23,24,22,24,155,"https://api.индекс-городов.рф/uploads/city/emblem/166/thumb_166_dankov.gif","Липецкая область","Малый город"
"261",167,67,"Дегтярск",60.0972792040145,56.7020937446018,15.8,6,"условно комфортный климат",23,27,28,19,11,43,151,"https://api.индекс-городов.рф/uploads/city/emblem/167/thumb_167_degtyarsk.png","Свердловская область","Малый город"
"262",168,29,"Дедовск",37.1238543178739,55.8654896176827,30.1,5,"условно комфортный климат",36,33,28,40,27,35,199,"https://api.индекс-городов.рф/uploads/city/emblem/168/thumb_168_dedovsk.gif","Московская область","Малый город"
"263",169,69,"Демидов",31.5218106209402,55.2676499823475,6.1,6,"условно комфортный климат",12,18,49,20,20,26,145,"https://api.индекс-городов.рф/uploads/city/emblem/169/thumb_169_demidov.gif","Смоленская область","Малый город"
"264",170,69,"Десногорск",33.3006601897077,54.1751158851026,27.3,5,"условно комфортный климат",41,28,41,25,24,31,190,"https://api.индекс-городов.рф/uploads/city/emblem/170/thumb_170_desnogorsk.gif","Смоленская область","Малый город"
"265",171,53,"Джанкой",34.3992085062677,45.7050047417564,38.4,5,"условно комфортный климат",28,27,11,22,18,35,141,"https://api.индекс-городов.рф/uploads/city/emblem/171/thumb_171_dzhankoy.png","Республика Крым","Малый город"
"266",173,57,"Дигора",44.1547839730391,43.1578363628754,10.1,6,"условно комфортный климат",35,22,25,13,20,28,143,NA,"Республика Северная Осетия - Алания","Малый город"
"267",175,37,"Дмитровск",35.151623312524,52.5121618425666,5,6,"условно комфортный климат",25,22,17,24,23,17,128,"https://api.индекс-городов.рф/uploads/city/emblem/175/thumb_175_dmitrovsk.png","Орловская область","Малый город"
"268",176,41,"Дно",29.9670757328373,57.8280389675988,7.5,6,"условно комфортный климат",20,32,27,23,16,33,151,"https://api.индекс-городов.рф/uploads/city/emblem/176/thumb_176_dno.png","Псковская область","Малый город"
"269",177,39,"Добрянка",56.4101275866214,58.4779495893527,32.3,5,"условно комфортный климат",35,24,19,21,26,27,152,"https://api.индекс-городов.рф/uploads/city/emblem/177/thumb_177_dobryanka.png","Пермский край","Малый город"
"270",178,66,"Долинск",142.789081592707,47.32729665896,11.7,6,"условно комфортный климат",25,35,33,23,28,41,185,"https://api.индекс-городов.рф/uploads/city/emblem/178/thumb_178_dolinsk.png","Сахалинская область","Малый город"
"271",179,61,"Донецк",39.9810857294054,48.324789792161,46.9,5,"условно комфортный климат",32,20,14,13,21,30,130,"https://api.индекс-городов.рф/uploads/city/emblem/179/thumb_179_Donetck.png","Ростовская область","Малый город"
"272",184,69,"Духовщина",32.4129358106868,55.1951904317252,4,7,"условно комфортный климат",18,30,21,23,21,21,134,"https://api.индекс-городов.рф/uploads/city/emblem/184/thumb_184_Dukhovschina.png","Смоленская область","Малый город"
"273",185,44,"Дюртюли",54.8749649857757,55.4704424300171,30.9,5,"условно комфортный климат",39,40,36,25,26,32,198,"https://api.индекс-городов.рф/uploads/city/emblem/185/thumb_185_Dyurtyuli.png","Республика Башкортостан","Малый город"
"274",186,6,"Дятьково",34.3452023426266,53.5945625898791,26.5,5,"условно комфортный климат",38,23,22,25,21,24,153,"https://api.индекс-городов.рф/uploads/city/emblem/186/thumb_186_Dyatkovo.gif","Брянская область","Малый город"
"275",187,53,"Евпатория",33.367015397057,45.2072865539171,107.7,3,"условно комфортный климат",37,37,14,29,20,26,163,"https://api.индекс-городов.рф/uploads/city/emblem/187/thumb_187_evpatoria.png","Республика Крым","Большой город"
"276",188,17,"Елизово",158.3923262297,53.1744762064255,39.2,5,"тяжелые климатические условия",25,21,20,12,28,30,136,"https://api.индекс-городов.рф/uploads/city/emblem/188/thumb_188_elizovo.png","Камчатский край","Малый город"
"277",189,69,"Ельня",33.176894425071,54.5792892769949,8.8,6,"условно комфортный климат",27,29,16,29,24,28,153,"https://api.индекс-городов.рф/uploads/city/emblem/189/thumb_189_elnya.png","Смоленская область","Малый город"
"278",190,80,"Еманжелинск",61.3427395401744,54.7581174589913,28.2,5,"условно комфортный климат",37,28,17,17,21,34,154,"https://api.индекс-городов.рф/uploads/city/emblem/190/thumb_190_emanzhelinsk.png","Челябинская область","Малый город"
"279",191,52,"Емва",50.9085203897036,62.589573800602,12.5,6,"условно комфортный климат",32,24,13,17,22,32,140,"https://api.индекс-городов.рф/uploads/city/emblem/191/thumb_191_emva.png","Республика Коми","Малый город"
"280",192,22,"Енисейск",92.1748218838209,58.4448130321562,17.8,6,"условно комфортный климат",21,28,19,31,18,27,144,"https://api.индекс-городов.рф/uploads/city/emblem/192/thumb_192_Eniseisk.png","Красноярский край","Малый город"
"281",193,16,"Ермолино",36.5804151042846,55.2076942348577,10.2,6,"условно комфортный климат",31,23,35,19,15,19,142,"https://api.индекс-городов.рф/uploads/city/emblem/193/thumb_193_ermolino.png","Калужская область","Малый город"
"282",194,65,"Ершов",48.272963171039,51.3539630540951,19.2,6,"условно комфортный климат",32,31,35,14,16,27,155,"https://api.индекс-городов.рф/uploads/city/emblem/194/thumb_194_ershov.gif","Саратовская область","Малый город"
"283",195,74,"Ефремов",38.1029203892703,53.1444534396788,34.7,5,"условно комфортный климат",29,34,18,27,35,30,173,"https://api.индекс-городов.рф/uploads/city/emblem/195/thumb_195_efremov.png","Тульская область","Малый город"
"284",196,70,"Железноводск",43.020196869562,44.1438712637066,24.8,6,"условно комфортный климат",44,30,24,21,30,29,178,"https://api.индекс-городов.рф/uploads/city/emblem/196/thumb_196_zheleznovodsk.png","Ставропольский край","Малый город"
"285",197,14,"Железногорск-Илимский",104.128394180507,56.5765540478052,23.1,6,"условно комфортный климат",34,26,15,14,11,28,128,"https://api.индекс-городов.рф/uploads/city/emblem/197/thumb_197_zheleznogorsk_ilimsky.gif","Иркутская область","Малый город"
"286",198,71,"Жердевка",41.4789865605268,51.8300922295099,14,6,"условно комфортный климат",33,22,21,20,18,27,141,"https://api.индекс-городов.рф/uploads/city/emblem/198/thumb_198_zherdevka.png","Тамбовская область","Малый город"
"287",199,16,"Жиздра",34.7336966943683,53.7520571406521,5.4,6,"условно комфортный климат",24,22,12,21,11,18,108,"https://api.индекс-городов.рф/uploads/city/emblem/199/thumb_199_zhizdra.png","Калужская область","Малый город"
"288",200,8,"Жирновск",44.8025769761175,50.9873420943003,15.5,6,"условно комфортный климат",39,28,15,20,23,27,152,"https://api.индекс-городов.рф/uploads/city/emblem/200/thumb_200_zhirnovsk.png","Волгоградская область","Малый город"
"289",201,16,"Жуков",36.7507606899683,55.0184936678767,13.6,6,"условно комфортный климат",33,28,18,20,19,35,153,"https://api.индекс-городов.рф/uploads/city/emblem/201/thumb_201_zhukov.png","Калужская область","Малый город"
"290",202,6,"Жуковка",33.7304586215041,53.5354690613884,16.7,6,"условно комфортный климат",31,28,21,27,14,29,150,"https://api.индекс-городов.рф/uploads/city/emblem/202/thumb_202_zhukovka.png","Брянская область","Малый город"
"291",203,2,"Завитинск",129.439148371958,50.1070054342549,10.4,6,"условно комфортный климат",26,24,26,11,18,37,142,"https://api.индекс-городов.рф/uploads/city/emblem/203/thumb_203_Zavitinsk.PNG","Амурская область","Малый город"
"292",703,22,"Уяр",94.3120843083027,55.8069025978718,12,6,"условно комфортный климат",29,23,28,10,23,33,146,"https://api.индекс-городов.рф/uploads/city/emblem/703/thumb_705_uyar.png","Красноярский край","Малый город"
"293",234,58,"Иннополис",48.7368735156989,55.7595884500398,0.4,7,"условно комфортный климат",60,35,23,32,31,36,217,NA,"Республика Татарстан","Малый город"
"294",206,32,"Заволжье",43.3986177243842,56.6342739623855,37.8,5,"условно комфортный климат",42,34,29,23,32,32,192,"https://api.индекс-городов.рф/uploads/city/emblem/206/thumb_206_Zavolzhie.png","Нижегородская область","Малый город"
"295",207,26,"Задонск",38.9363596618326,52.3924781987833,9.6,6,"условно комфортный климат",40,21,27,30,19,28,165,"https://api.индекс-городов.рф/uploads/city/emblem/207/thumb_207_Zadonsk.png","Липецкая область","Малый город"
"296",208,58,"Заинск",52.0188092998024,55.2880676229193,39.9,5,"условно комфортный климат",37,23,26,22,30,39,177,"https://api.индекс-городов.рф/uploads/city/emblem/208/thumb_208_zainsk.png","Республика Татарстан","Малый город"
"297",209,45,"Закаменск",103.29210583612,50.3801758797017,11.2,6,"условно комфортный климат",22,24,16,8,15,39,124,"https://api.индекс-городов.рф/uploads/city/emblem/209/thumb_209_Zakamensk.gif","Республика Бурятия","Малый город"
"298",210,22,"Заозерный",94.7088236437021,55.954663712274,10.2,6,"условно комфортный климат",34,26,22,14,18,29,143,"https://api.индекс-городов.рф/uploads/city/emblem/210/thumb_210_Zaozerny.png","Красноярский край","Малый город"
"299",213,29,"Зарайск",38.8855616611858,54.7655723207064,22.9,6,"условно комфортный климат",39,31,18,38,35,36,197,"https://api.индекс-городов.рф/uploads/city/emblem/213/thumb_213_Zaraysk.png","Московская область","Малый город"
"300",214,67,"Заречный",61.3297019591656,56.8046965257255,27.8,5,"условно комфортный климат",44,22,22,27,21,26,162,"https://api.индекс-городов.рф/uploads/city/emblem/214/thumb_214_Zarechny.png","Свердловская область","Малый город"
"301",215,1,"Заринск",84.9543116481858,53.721129286681,46.3,5,"условно комфортный климат",37,24,23,15,18,30,147,"https://api.индекс-городов.рф/uploads/city/emblem/215/thumb_215_zarinsk.png","Алтайский край","Малый город"
"302",216,54,"Звенигово",48.0236637151823,55.9720552259848,11,6,"условно комфортный климат",40,25,15,36,14,43,173,"https://api.индекс-городов.рф/uploads/city/emblem/216/thumb_217_Zvenigovo.png","Республика Марий Эл","Малый город"
"303",217,29,"Звенигород",36.8540007131069,55.7197575881451,21.9,6,"условно комфортный климат",51,31,17,45,29,31,204,"https://api.индекс-городов.рф/uploads/city/emblem/217/thumb_218_zvenigorod.png","Московская область","Малый город"
"304",218,61,"Зверево",40.1516760185066,48.0402452294742,18.6,6,"условно комфортный климат",37,29,16,11,25,30,148,"https://api.индекс-городов.рф/uploads/city/emblem/218/thumb_219_zverevo.png","Ростовская область","Малый город"
"305",219,15,"Зеленоградск",20.466051303332,54.9432660930015,15.9,6,"условно комфортный климат",38,34,30,34,30,31,197,"https://api.индекс-городов.рф/uploads/city/emblem/219/thumb_220_Zelenogradsk.png","Калининградская область","Малый город"
"306",220,70,"Зеленокумск",43.8763090335493,44.4136827770025,34.7,5,"условно комфортный климат",32,18,12,19,24,28,133,"https://api.индекс-городов.рф/uploads/city/emblem/220/thumb_221_Zelenokumsk.png","Ставропольский край","Малый город"
"307",221,61,"Зерноград",40.312410493091,46.8498886119712,24.2,6,"условно комфортный климат",41,32,18,30,20,31,172,"https://api.индекс-городов.рф/uploads/city/emblem/221/thumb_222_Zernograd.png","Ростовская область","Малый город"
"308",222,2,"Зея",127.230463499765,53.7438583391273,23.1,6,"тяжелые климатические условия",30,21,20,17,18,33,139,"https://api.индекс-городов.рф/uploads/city/emblem/222/thumb_223_zeya.png","Амурская область","Малый город"
"309",223,14,"Зима",102.050382604541,53.9115452367781,30.8,5,"условно комфортный климат",12,18,40,16,13,34,133,"https://api.индекс-городов.рф/uploads/city/emblem/223/thumb_224_zima.png","Иркутская область","Малый город"
"310",224,6,"Злынка",31.7373852594112,52.4255839967424,5.3,6,"условно комфортный климат",30,24,25,28,20,29,156,"https://api.индекс-городов.рф/uploads/city/emblem/224/thumb_225_zlynka.png","Брянская область","Малый город"
"311",225,1,"Змеиногорск",82.2004631594979,51.1621228184687,10.3,6,"условно комфортный климат",24,20,26,23,21,30,144,"https://api.индекс-городов.рф/uploads/city/emblem/225/thumb_226_Zmeinogorsk.png","Алтайский край","Малый город"
"312",226,72,"Зубцов",34.5812815233559,56.1703704313874,6.2,6,"условно комфортный климат",29,23,31,31,21,34,169,"https://api.индекс-городов.рф/uploads/city/emblem/226/thumb_227_zubtsov.png","Тверская область","Малый город"
"313",227,19,"Зуевка",51.130860700586,58.4060574230419,10.3,6,"условно комфортный климат",24,27,21,24,21,24,141,"https://api.индекс-городов.рф/uploads/city/emblem/227/thumb_228_zuevka.png","Кировская область","Малый город"
"314",228,25,"Ивангород",28.2204411112657,59.3665228907773,9.8,6,"условно комфортный климат",30,25,34,32,23,30,174,"https://api.индекс-городов.рф/uploads/city/emblem/228/thumb_229_Ivangorod.gif","Ленинградская область","Малый город"
"315",229,67,"Ивдель",60.4590675407968,60.6752364112726,15.7,6,"условно комфортный климат",21,26,16,23,14,40,140,"https://api.индекс-городов.рф/uploads/city/emblem/229/thumb_230_Ivdel.png","Свердловская область","Малый город"
"316",230,22,"Игарка",86.5693505710179,67.4621961606668,4.4,7,"тяжелые климатические условия",29,24,10,10,20,39,132,"https://api.индекс-городов.рф/uploads/city/emblem/230/thumb_231_Igarka.png","Красноярский край","Малый город"
"317",233,77,"Инза",46.3531291066865,53.8500502961824,17.4,6,"условно комфортный климат",31,25,10,23,20,36,145,"https://api.индекс-городов.рф/uploads/city/emblem/233/thumb_234_inza.gif","Ульяновская область","Малый город"
"318",235,55,"Инсар",44.3725848039724,53.869218841307,7.8,6,"условно комфортный климат",27,23,22,12,15,29,128,"https://api.индекс-городов.рф/uploads/city/emblem/235/thumb_236_Insar.png","Республика Мордовия","Малый город"
"319",236,52,"Инта",60.1570576879673,66.0193725468284,24.9,5,"тяжелые климатические условия",35,30,28,21,22,36,172,"https://api.индекс-городов.рф/uploads/city/emblem/236/thumb_237_Inta.png","Республика Коми","Малый город"
"320",239,35,"Исилькуль",71.2682683311353,54.9097799343713,22.6,6,"условно комфортный климат",21,26,21,20,24,35,147,"https://api.индекс-городов.рф/uploads/city/emblem/239/thumb_240_isilkul.png","Омская область","Малый город"
"321",240,29,"Истра",36.857961913975,55.9113403261709,33.5,5,"условно комфортный климат",40,36,43,43,34,33,229,"https://api.индекс-городов.рф/uploads/city/emblem/240/thumb_241_istra.png","Московская область","Малый город"
"322",244,35,"Калачинск",74.5737688999428,55.0576628613056,22.6,6,"условно комфортный климат",35,22,16,24,26,28,151,"https://api.индекс-городов.рф/uploads/city/emblem/244/thumb_245_kalachinsk.png","Омская область","Малый город"
"323",245,65,"Калининск",44.4745355026526,51.5044693736627,15.6,6,"условно комфортный климат",34,38,17,29,17,30,165,"https://api.индекс-городов.рф/uploads/city/emblem/245/thumb_246_kalininsk.png","Саратовская область","Малый город"
"324",246,18,"Калтан",87.2693013564704,53.5341977081124,20.6,6,"условно комфортный климат",35,27,12,21,21,26,142,"https://api.индекс-городов.рф/uploads/city/emblem/246/thumb_247_Kaltan.png","Кемеровская область","Малый город"
"325",247,72,"Калязин",37.8351570136362,57.2425664982076,12.5,6,"условно комфортный климат",33,27,31,23,19,29,162,"https://api.индекс-городов.рф/uploads/city/emblem/247/thumb_248_Kalyazin.png","Тверская область","Малый город"
"326",249,38,"Каменка",44.0224922426517,53.1922334827643,35.2,5,"условно комфортный климат",29,24,28,27,27,34,169,"https://api.индекс-городов.рф/uploads/city/emblem/249/thumb_250_Kamenka.png","Пензенская область","Малый город"
"327",250,25,"Каменногорск",29.1310982031645,60.9472275457212,6.4,6,"условно комфортный климат",25,26,20,16,18,30,135,"https://api.индекс-городов.рф/uploads/city/emblem/250/thumb_251_Kamennogorsk.png","Ленинградская область","Малый город"
"328",251,1,"Камень-на-Оби",81.3218895486593,53.7790987690892,40.6,5,"условно комфортный климат",24,30,15,23,18,33,143,"https://api.индекс-городов.рф/uploads/city/emblem/251/thumb_252_Kamen-na-obi.gif","Алтайский край","Малый город"
"329",252,7,"Камешково",41.0056892741644,56.3493067950008,12.2,6,"условно комфортный климат",30,30,20,29,24,32,165,"https://api.индекс-городов.рф/uploads/city/emblem/252/thumb_253_Kameshkovo.png","Владимирская область","Малый город"
"330",253,4,"Камызяк",48.0982471225888,46.1184183572632,15.8,6,"условно комфортный климат",38,30,35,12,21,39,175,"https://api.индекс-городов.рф/uploads/city/emblem/253/thumb_254_Kamyzyak.png","Астраханская область","Малый город"
"331",254,67,"Камышлов",62.719301432256,56.8337079571954,26.3,5,"условно комфортный климат",25,26,18,25,21,39,154,"https://api.индекс-городов.рф/uploads/city/emblem/254/thumb_255_Kamyshlov.png","Свердловская область","Малый город"
"332",255,82,"Канаш",47.5013022261788,55.5111236108528,45.2,5,"условно комфортный климат",39,29,37,31,30,35,201,"https://api.индекс-городов.рф/uploads/city/emblem/255/thumb_256_Kanash.png","Чувашская Республика","Малый город"
"333",256,30,"Кандалакша",32.4014662843869,67.1777879684328,30.6,5,"тяжелые климатические условия",39,36,27,25,22,29,178,"https://api.индекс-городов.рф/uploads/city/emblem/256/thumb_257_Kandalaksha.png","Мурманская область","Малый город"
"334",257,7,"Карабаново",38.702015076161,56.3123628549468,14.6,6,"условно комфортный климат",32,37,28,30,23,30,180,"https://api.индекс-городов.рф/uploads/city/emblem/257/thumb_258_Karabanovo.gif","Владимирская область","Малый город"
"335",258,80,"Карабаш",60.2158740318639,55.4724793405478,10.9,6,"условно комфортный климат",26,16,12,22,17,24,117,"https://api.индекс-городов.рф/uploads/city/emblem/258/thumb_259_Karabash.gif","Челябинская область","Малый город"
"336",259,47,"Карабулак",44.8826624034337,43.364452838142,41.5,5,"условно комфортный климат",33,18,7,10,12,27,107,"https://api.индекс-городов.рф/uploads/city/emblem/259/thumb_260_Karabulak.png","Республика Ингушетия","Малый город"
"337",260,34,"Карасук",78.0739360687479,53.7372883099034,26.7,5,"условно комфортный климат",30,27,18,19,22,31,147,"https://api.индекс-городов.рф/uploads/city/emblem/260/thumb_261_Karasuk.png","Новосибирская область","Малый город"
"338",261,50,"Карачаевск",41.9035451157221,43.7690055424874,21,6,"условно комфортный климат",43,25,25,12,9,22,136,"https://api.индекс-городов.рф/uploads/city/emblem/261/thumb_262_Karachaevsk.png","Республика Карачаево-Черкесия","Малый город"
"339",262,6,"Карачев",34.9907793766164,53.1195812856618,17.5,6,"условно комфортный климат",42,28,20,28,26,29,173,"https://api.индекс-городов.рф/uploads/city/emblem/262/thumb_263_Karachev.png","Брянская область","Малый город"
"340",263,34,"Каргат",80.2849213874671,55.19397653147,9.2,6,"условно комфортный климат",18,18,33,12,11,28,120,"https://api.индекс-городов.рф/uploads/city/emblem/263/thumb_264_Kargat.gif","Новосибирская область","Малый город"
"341",264,3,"Каргополь",38.9373051764284,61.5052938352089,10,6,"условно комфортный климат",18,24,23,31,18,19,133,"https://api.индекс-городов.рф/uploads/city/emblem/264/thumb_265_Kargopol.png","Архангельская область","Малый город"
"342",265,80,"Карталы",60.630662437501,53.05517547136,28.4,5,"условно комфортный климат",34,24,15,15,19,36,143,"https://api.индекс-городов.рф/uploads/city/emblem/265/thumb_266_Kartali.png","Челябинская область","Малый город"
"343",266,62,"Касимов",41.3869997495839,54.9412383916027,29.7,5,"условно комфортный климат",28,24,36,30,27,40,185,"https://api.индекс-городов.рф/uploads/city/emblem/266/thumb_267_Kasimov.png","Рязанская область","Малый город"
"344",267,80,"Касли",60.7565249417224,55.8875545773035,15.9,6,"условно комфортный климат",34,28,23,26,22,29,162,"https://api.индекс-городов.рф/uploads/city/emblem/267/thumb_268_Kasli_2002.png","Челябинская область","Малый город"
"345",269,23,"Катайск",62.5821198659303,56.2880073385213,12.4,6,"условно комфортный климат",33,27,21,21,20,15,137,"https://api.индекс-городов.рф/uploads/city/emblem/269/thumb_270_Kataysk.png","Курганская область","Малый город"
"346",270,67,"Качканар",59.4569403635578,58.7031465506735,38.4,5,"условно комфортный климат",33,29,24,17,26,40,169,"https://api.индекс-городов.рф/uploads/city/emblem/270/thumb_271_Kachkanar.png","Свердловская область","Малый город"
"347",274,51,"Кемь",34.609605580854,64.9543205801237,10.9,6,"тяжелые климатические условия",18,28,24,18,18,41,147,"https://api.индекс-городов.рф/uploads/city/emblem/274/thumb_275_Kem.png","Республика Карелия","Малый город"
"348",275,39,"Кизел",57.6468659835353,59.0440695263961,14.2,6,"условно комфортный климат",30,31,35,13,22,28,159,"https://api.индекс-городов.рф/uploads/city/emblem/275/thumb_277_Kizel.png","Пермский край","Малый город"
"349",276,46,"Кизилюрт",46.8701487350169,43.2024271042919,37.6,5,"условно комфортный климат",36,29,17,22,17,30,151,"https://api.индекс-городов.рф/uploads/city/emblem/276/thumb_278_Kizilyurt.png","Республика Дагестан","Малый город"
"350",277,46,"Кизляр",46.718242113246,43.8434326684043,49.2,5,"условно комфортный климат",39,32,24,27,21,26,169,"https://api.индекс-городов.рф/uploads/city/emblem/277/thumb_279_Kizlyar.gif","Республика Дагестан","Малый город"
"351",278,74,"Кимовск",38.5251334429468,53.9658551149761,25.7,5,"условно комфортный климат",30,26,27,18,20,30,151,"https://api.индекс-городов.рф/uploads/city/emblem/278/thumb_280_Kimovsk.png","Тульская область","Малый город"
"352",279,72,"Кимры",37.3454873471178,56.8649114379459,44.1,5,"условно комфортный климат",30,34,27,29,26,33,179,"https://api.индекс-городов.рф/uploads/city/emblem/279/thumb_281_Kimri.png","Тверская область","Малый город"
"353",281,63,"Кинель",50.6088261598548,53.2199631065738,35.7,5,"условно комфортный климат",35,28,20,14,21,27,145,"https://api.индекс-городов.рф/uploads/city/emblem/281/thumb_283_Kinel.png","Самарская область","Малый город"
"354",282,74,"Киреевск",37.9185874909777,53.9312635208617,26.2,5,"условно комфортный климат",32,29,36,24,22,30,173,"https://api.индекс-городов.рф/uploads/city/emblem/282/thumb_284_Kireevsk.png","Тульская область","Малый город"
"355",283,14,"Киренск",108.084540549364,57.7778073075003,11,6,"условно комфортный климат",19,30,19,22,15,29,134,"https://api.индекс-городов.рф/uploads/city/emblem/283/thumb_285_Kirensk.png","Иркутская область","Малый город"
"356",284,7,"Киржач",38.8674060983249,56.1487482002214,26.3,5,"условно комфортный климат",29,26,25,30,26,32,168,"https://api.индекс-городов.рф/uploads/city/emblem/284/thumb_286_Kirzhach.png","Владимирская область","Малый город"
"357",285,9,"Кириллов",38.3772552844783,59.8566187113765,7.5,6,"условно комфортный климат",16,24,25,23,20,33,141,"https://api.индекс-городов.рф/uploads/city/emblem/285/thumb_287_Kirillov.png","Вологодская область","Малый город"
"358",286,16,"Киров",34.309857414712,54.0760072333902,30.3,5,"условно комфортный климат",24,19,16,20,33,36,148,"https://api.индекс-городов.рф/uploads/city/emblem/286/thumb_288_Kirov.png","Калужская область","Малый город"
"359",287,67,"Кировград",60.0888998774857,57.4227115926947,19,6,"условно комфортный климат",38,29,23,24,18,35,167,"https://api.индекс-городов.рф/uploads/city/emblem/287/thumb_289_Kirovgrad.png","Свердловская область","Малый город"
"360",288,25,"Кировск",30.9970796393257,59.8747255916599,26.7,5,"условно комфортный климат",44,30,39,20,28,39,200,"https://api.индекс-городов.рф/uploads/city/emblem/288/thumb_290_Kirovsk.png","Ленинградская область","Малый город"
"361",289,19,"Кирс",52.2312344547881,59.3434120253003,9.3,6,"условно комфортный климат",26,24,17,25,19,30,141,"https://api.индекс-городов.рф/uploads/city/emblem/289/thumb_291_Kirs.png","Кировская область","Малый город"
"362",292,30,"Ковдор",30.5264290708283,67.5660458890729,16.4,6,"тяжелые климатические условия",35,32,27,30,22,31,177,"https://api.индекс-городов.рф/uploads/city/emblem/292/thumb_294_Kovdor.png","Мурманская область","Малый город"
"363",293,55,"Ковылкино",43.9135378375616,54.0358628819043,19,6,"условно комфортный климат",31,26,14,17,28,35,151,"https://api.индекс-городов.рф/uploads/city/emblem/293/thumb_295_Kovylkino.png","Республика Мордовия","Малый город"
"364",294,22,"Кодинск",99.2057706143904,58.6021845065147,15.9,6,"условно комфортный климат",39,32,18,14,20,31,154,"https://api.индекс-городов.рф/uploads/city/emblem/294/thumb_296_Kodinsk.png","Красноярский край","Малый город"
"365",295,16,"Козельск",35.784370581155,54.0312884695653,16.4,6,"условно комфортный климат",29,26,34,30,22,26,167,"https://api.индекс-городов.рф/uploads/city/emblem/295/thumb_297_Kozelsk.png","Калужская область","Малый город"
"366",296,82,"Козловка",48.2467832533648,55.8348029670016,8.7,6,"условно комфортный климат",29,26,24,27,17,30,153,"https://api.индекс-городов.рф/uploads/city/emblem/296/thumb_298_Kozlovka.png","Чувашская Республика","Малый город"
"367",297,54,"Козьмодемьянск",46.5541573551324,56.3266347921348,20.1,6,"условно комфортный климат",30,26,19,38,26,41,180,"https://api.индекс-городов.рф/uploads/city/emblem/297/thumb_299_Kozmodemiansk.png","Республика Марий Эл","Малый город"
"368",298,30,"Кола",33.0247090878998,68.873966853115,9.7,6,"тяжелые климатические условия",48,41,20,25,22,34,190,"https://api.индекс-городов.рф/uploads/city/emblem/298/thumb_300_Kola.png","Мурманская область","Малый город"
"369",299,20,"Кологрив",44.3258035629788,58.8221270240237,2.9,7,"условно комфортный климат",32,25,13,30,25,32,157,"https://api.индекс-городов.рф/uploads/city/emblem/299/thumb_301_Kologriv.png","Костромская область","Малый город"
"370",300,73,"Колпашево",82.9685185539217,58.3138615236607,23.3,6,"тяжелые климатические условия",20,28,27,13,28,30,146,"https://api.индекс-городов.рф/uploads/city/emblem/300/thumb_302_kolpashevo.png","Томская область","Малый город"
"371",303,13,"Комсомольск",40.3821973045869,57.0279700579998,8.1,6,"условно комфортный климат",30,29,21,33,28,30,171,"https://api.индекс-городов.рф/uploads/city/emblem/303/thumb_305_komsomolsk.png","Ивановская область","Малый город"
"372",304,72,"Конаково",36.7754290535136,56.7145487621727,37.5,5,"условно комфортный климат",36,36,31,26,29,33,191,"https://api.индекс-городов.рф/uploads/city/emblem/304/thumb_306_konakovo.png","Тверская область","Малый город"
"373",305,51,"Кондопога",34.2590789535276,62.2068763547246,29.7,5,"условно комфортный климат",31,36,30,32,23,32,184,"https://api.индекс-городов.рф/uploads/city/emblem/305/thumb_307_kondopoga.png","Республика Карелия","Малый город"
"374",308,62,"Кораблино",40.0304077335829,53.9233194459303,11.2,6,"условно комфортный климат",30,24,35,20,23,31,163,"https://api.индекс-городов.рф/uploads/city/emblem/308/thumb_310_korablino.gif","Рязанская область","Малый город"
"375",309,21,"Кореновск",39.4397361436479,45.4630244258893,42.2,5,"условно комфортный климат",32,23,15,17,24,26,137,"https://api.индекс-городов.рф/uploads/city/emblem/309/thumb_311_korenovsk.png","Краснодарский край","Малый город"
"376",310,80,"Коркино",61.3817052421443,54.8927146583705,34.2,5,"условно комфортный климат",38,29,27,18,25,31,168,"https://api.индекс-городов.рф/uploads/city/emblem/310/thumb_312_korkino.png","Челябинская область","Малый город"
"377",311,5,"Короча",37.1915305523048,50.8107211046987,5.8,6,"условно комфортный климат",38,24,25,39,24,32,182,"https://api.индекс-городов.рф/uploads/city/emblem/311/thumb_313_korocha.png","Белгородская область","Малый город"
"378",312,66,"Корсаков",142.790429961849,46.6324752419043,33.6,5,"условно комфортный климат",20,26,34,19,25,32,156,"https://api.индекс-городов.рф/uploads/city/emblem/312/thumb_314_korsakov.png","Сахалинская область","Малый город"
"379",313,3,"Коряжма",47.1242639418776,61.2909568139312,36.2,5,"условно комфортный климат",42,38,23,19,31,30,183,"https://api.индекс-городов.рф/uploads/city/emblem/313/thumb_315_koryazhma.png","Архангельская область","Малый город"
"380",314,7,"Костерево",39.6344583563901,55.9379373607445,8.1,6,"условно комфортный климат",37,26,21,24,16,29,153,"https://api.индекс-городов.рф/uploads/city/emblem/314/thumb_316_kosterevo.png","Владимирская область","Малый город"
"381",315,51,"Костомукша",30.61117164808,64.5867171172036,29.4,5,"тяжелые климатические условия",37,30,22,34,13,36,172,"https://api.индекс-городов.рф/uploads/city/emblem/315/thumb_317_kostomuksha.png","Республика Карелия","Малый город"
"382",316,29,"Котельники",37.8647341902636,55.6548210569272,46.8,5,"условно комфортный климат",53,34,15,37,43,37,219,"https://api.индекс-городов.рф/uploads/city/emblem/316/thumb_318_kotelniki.png","Московская область","Малый город"
"383",318,19,"Котельнич",48.3235777904688,58.3061958987095,23.2,6,"условно комфортный климат",37,25,22,26,22,34,166,"https://api.индекс-городов.рф/uploads/city/emblem/318/thumb_320_kotelnich.png","Кировская область","Малый город"
"384",319,8,"Котово",44.8043447621647,50.3209163977546,21.8,6,"условно комфортный климат",28,28,22,25,23,27,153,"https://api.индекс-городов.рф/uploads/city/emblem/319/thumb_321_kotovo.gif","Волгоградская область","Малый город"
"385",320,71,"Котовск",41.5053106621573,52.5919801299928,29.4,5,"условно комфортный климат",50,34,21,23,27,31,186,"https://api.индекс-городов.рф/uploads/city/emblem/320/thumb_322_kotovsk.png","Тамбовская область","Малый город"
"386",321,13,"Кохма",41.0984205322617,56.9320202070411,30.2,5,"условно комфортный климат",43,28,33,30,24,26,184,"https://api.индекс-городов.рф/uploads/city/emblem/321/thumb_323_kokhma.png","Ивановская область","Малый город"
"387",322,9,"Красавино",46.4711149751088,60.9614942008344,6,6,"условно комфортный климат",29,23,40,14,13,33,152,"https://api.индекс-городов.рф/uploads/city/emblem/322/thumb_324_krasavino.jpg","Вологодская область","Малый город"
"388",323,65,"Красноармейск",45.699940570022,51.0194823817707,22.6,6,"условно комфортный климат",23,28,12,29,14,30,136,"https://api.индекс-городов.рф/uploads/city/emblem/323/thumb_325_krasnoarmeysk.png","Саратовская область","Малый город"
"389",324,29,"Красноармейск",38.1291403294939,56.1080963276766,26.5,5,"условно комфортный климат",29,34,32,38,29,24,186,"https://api.индекс-городов.рф/uploads/city/emblem/324/thumb_326_krasnoarmeysk.png","Московская область","Малый город"
"390",325,39,"Красновишерск",57.0776101345883,60.4031159356547,15,6,"условно комфортный климат",34,24,19,25,16,35,153,"https://api.индекс-городов.рф/uploads/city/emblem/325/thumb_327_krasnovishersk.png","Пермский край","Малый город"
"391",326,29,"Краснозаводск",38.2496615412606,56.4389748859342,12.9,6,"условно комфортный климат",25,25,24,27,25,29,155,"https://api.индекс-городов.рф/uploads/city/emblem/326/thumb_328_krasnozavodsk.png","Московская область","Малый город"
"392",327,15,"Краснознаменск",22.4930117176718,54.9443336502041,3.2,7,"условно комфортный климат",21,26,32,14,30,20,143,"https://api.индекс-городов.рф/uploads/city/emblem/327/thumb_329_krasnoznamensk.png","Калининградская область","Малый город"
"393",328,53,"Красноперекопск",33.8142217856523,45.9596378118415,25.2,5,"условно комфортный климат",33,28,38,13,18,22,152,"https://api.индекс-городов.рф/uploads/city/emblem/328/thumb_330_krasnoperekopsk.png","Республика Крым","Малый город"
"394",329,8,"Краснослободск",44.5735599581941,48.6930182719632,17.3,6,"условно комфортный климат",22,26,24,13,18,21,124,"https://api.индекс-городов.рф/uploads/city/emblem/329/thumb_331_krasnoslobodsk.png","Волгоградская область","Малый город"
"395",333,65,"Красный Кут",46.9622717342307,50.9570810007905,14.4,6,"условно комфортный климат",31,28,19,23,21,31,153,"https://api.индекс-городов.рф/uploads/city/emblem/333/thumb_335_krasny_kut.png","Саратовская область","Малый город"
"396",334,61,"Красный Сулин",40.0580300721256,47.8699749859805,37.8,5,"условно комфортный климат",31,27,10,13,24,21,126,"https://api.индекс-городов.рф/uploads/city/emblem/334/thumb_336_krasny_sulin.png","Ростовская область","Малый город"
"397",335,72,"Красный Холм",37.1215716166794,58.0605511496738,5.1,6,"условно комфортный климат",28,27,22,25,20,31,153,"https://api.индекс-городов.рф/uploads/city/emblem/335/thumb_337_krasnii_holm.png","Тверская область","Малый город"
"398",336,16,"Кременки",37.1216670663648,54.887355689271,10.4,6,"условно комфортный климат",33,26,17,25,22,31,154,"https://api.индекс-городов.рф/uploads/city/emblem/336/thumb_338_kremenki.png","Калужская область","Малый город"
"399",337,29,"Кубинка",36.728784401441,55.576260834835,20.1,6,"условно комфортный климат",32,28,22,33,22,30,167,"https://api.индекс-городов.рф/uploads/city/emblem/337/thumb_339_kubinka.png","Московская область","Малый город"
"400",479,24,"Обоянь",36.2675559061339,51.2111942107246,13.3,6,"условно комфортный климат",32,27,17,29,19,27,151,"https://api.индекс-городов.рф/uploads/city/emblem/479/thumb_481_oboyan.png","Курская область","Малый город"
"401",339,72,"Кувшиново",34.1560390820392,57.0293839570394,8.9,6,"условно комфортный климат",30,25,31,18,16,25,145,"https://api.индекс-городов.рф/uploads/city/emblem/339/thumb_341_kuvshinovo.png","Тверская область","Малый город"
"402",340,39,"Кудымкар",54.6394859360481,59.0181213245316,30.9,5,"условно комфортный климат",21,27,16,25,26,42,157,"https://api.индекс-городов.рф/uploads/city/emblem/340/thumb_342_kudymkar.png","Пермский край","Малый город"
"403",341,34,"Куйбышев",78.3214870867781,55.4488200634175,43.8,5,"условно комфортный климат",30,29,13,21,25,37,155,"https://api.индекс-городов.рф/uploads/city/emblem/341/thumb_343_kuybishev.png","Новосибирская область","Малый город"
"404",342,32,"Кулебаки",42.5256207545025,55.4157271853449,32.1,5,"условно комфортный климат",36,27,25,21,28,28,165,"https://api.индекс-городов.рф/uploads/city/emblem/342/thumb_344_Kylebaki_rayon.png","Нижегородская область","Малый город"
"405",343,34,"Купино",77.3004043153911,54.3800761524851,13.7,6,"условно комфортный климат",28,28,21,13,17,32,139,"https://api.индекс-городов.рф/uploads/city/emblem/343/thumb_345_kupino.png","Новосибирская область","Малый город"
"406",344,21,"Курганинск",40.5901240523937,44.8906652787684,48.4,5,"условно комфортный климат",30,25,33,13,24,29,154,"https://api.индекс-городов.рф/uploads/city/emblem/344/thumb_346_kurganinsk.png","Краснодарский край","Малый город"
"407",345,66,"Курильск",147.877949048576,45.2304648093123,1.6,7,"условно комфортный климат",16,34,34,21,27,34,166,"https://api.индекс-городов.рф/uploads/city/emblem/345/thumb_347_kurilsk.png","Сахалинская область","Малый город"
"408",346,7,"Курлово",40.612950481631,55.4529530554664,5.9,6,"условно комфортный климат",26,14,20,18,16,23,117,"https://api.индекс-городов.рф/uploads/city/emblem/346/thumb_348_kurlovo.gif","Владимирская область","Малый город"
"409",347,29,"Куровское",38.9145436869908,55.5823421189634,20.6,6,"условно комфортный климат",41,27,14,43,32,33,190,"https://api.индекс-городов.рф/uploads/city/emblem/347/thumb_349_kurovskoe.png","Московская область","Малый город"
"410",348,23,"Куртамыш",64.4284043717089,54.9426236983504,16.5,6,"условно комфортный климат",26,16,19,7,6,22,96,"https://api.индекс-городов.рф/uploads/city/emblem/348/thumb_350_kurtamysh.png","Курганская область","Малый город"
"411",349,24,"Курчатов",35.6615396588499,51.6637620146658,38.2,5,"условно комфортный климат",40,33,36,18,25,32,184,"https://api.индекс-городов.рф/uploads/city/emblem/349/thumb_351_kurcatov.gif","Курская область","Малый город"
"412",350,80,"Куса",59.4385186906917,55.3436126028005,16.9,6,"условно комфортный климат",32,28,41,29,19,29,178,"https://api.индекс-городов.рф/uploads/city/emblem/350/thumb_352_kusa.png","Челябинская область","Малый город"
"413",351,67,"Кушва",59.7466760092189,58.2817274051763,27.6,5,"условно комфортный климат",28,33,19,19,21,35,155,"https://api.индекс-городов.рф/uploads/city/emblem/351/thumb_353_kushva.png","Свердловская область","Малый город"
"414",353,45,"Кяхта",106.45157346569,50.3623847145145,20.2,6,"условно комфортный климат",22,28,21,17,13,35,136,"https://api.индекс-городов.рф/uploads/city/emblem/353/thumb_355_kyahta.png","Республика Бурятия","Малый город"
"415",355,49,"Лагань",47.3520732748782,45.4014007285777,12.9,6,"условно комфортный климат",25,21,11,14,17,18,106,"https://api.индекс-городов.рф/uploads/city/emblem/355/thumb_357_lagan.gif","Республика Калмыкия","Малый город"
"416",356,15,"Ладушкин",20.1600264107373,54.5714792651613,3.9,7,"условно комфортный климат",31,27,35,14,13,24,144,"https://api.индекс-городов.рф/uploads/city/emblem/356/thumb_358_ladushkin.png","Калининградская область","Малый город"
"417",357,58,"Лаишево",49.5442749190877,55.4057158470419,8.6,6,"условно комфортный климат",34,23,17,19,15,37,145,"https://api.индекс-городов.рф/uploads/city/emblem/357/thumb_359_laishevo.png","Республика Татарстан","Малый город"
"418",358,7,"Лакинск",39.9482346266296,56.0170758401589,14.1,6,"условно комфортный климат",28,22,24,27,17,24,142,"https://api.индекс-городов.рф/uploads/city/emblem/358/thumb_360_lakinsk.gif","Владимирская область","Малый город"
"419",359,79,"Лангепас",75.1804965591626,61.2568402167992,44.6,5,"тяжелые климатические условия",42,33,24,22,32,37,190,"https://api.индекс-городов.рф/uploads/city/emblem/359/thumb_361_langepas.png","Ханты-Мансийский автономный округ","Малый город"
"420",362,8,"Ленинск",45.2078078795109,48.7118096822862,14.6,6,"условно комфортный климат",27,22,8,12,23,31,123,"https://api.индекс-городов.рф/uploads/city/emblem/362/thumb_364_leninsk.gif","Волгоградская область","Малый город"
"421",363,56,"Ленск",114.909691970529,60.7240891484087,23.2,6,"тяжелые климатические условия",26,23,17,13,17,29,125,"https://api.индекс-городов.рф/uploads/city/emblem/363/thumb_365_lensk.gif","Республика Саха (Якутия)","Малый город"
"422",364,70,"Лермонтов",42.9578095514806,44.1059990849329,22.6,6,"условно комфортный климат",47,38,14,20,27,22,168,"https://api.индекс-городов.рф/uploads/city/emblem/364/thumb_366_lermontov.png","Ставропольский край","Малый город"
"423",365,40,"Лесозаводск",133.401854410451,45.4690691623193,35.3,5,"условно комфортный климат",29,16,26,10,15,23,119,"https://api.индекс-городов.рф/uploads/city/emblem/365/thumb_367_lesozavodsk.gif","Приморский край","Малый город"
"424",366,37,"Ливны",37.5880736374309,52.4179082610273,47.2,5,"условно комфортный климат",37,28,43,27,32,31,198,"https://api.индекс-городов.рф/uploads/city/emblem/366/thumb_368_livny.png","Орловская область","Малый город"
"425",368,74,"Липки",37.7008373649459,53.9438771650449,8.2,6,"условно комфортный климат",23,19,29,27,16,25,139,"https://api.индекс-городов.рф/uploads/city/emblem/368/thumb_370_lipki.gif","Тульская область","Малый город"
"426",369,72,"Лихославль",35.4636232865834,57.1266865307749,11.5,6,"условно комфортный климат",38,26,29,17,17,28,155,"https://api.индекс-городов.рф/uploads/city/emblem/369/thumb_371_likhoslavl.png","Тверская область","Малый город"
"427",370,25,"Лодейное Поле",33.5380743837388,60.7276706683761,19.3,6,"условно комфортный климат",36,35,21,39,28,34,193,"https://api.индекс-городов.рф/uploads/city/emblem/370/thumb_372_lodeinoe_pole.gif","Ленинградская область","Малый город"
"428",373,19,"Луза",47.2660645270161,60.6247905816787,10,6,"условно комфортный климат",25,20,21,16,12,31,125,"https://api.индекс-городов.рф/uploads/city/emblem/373/thumb_375_luza.png","Кировская область","Малый город"
"429",374,32,"Лукоянов",44.4723718843819,55.0358181931426,13.9,6,"условно комфортный климат",27,23,25,27,22,31,155,"https://api.индекс-городов.рф/uploads/city/emblem/374/thumb_376_lukoyanov.png","Нижегородская область","Малый город"
"430",375,29,"Луховицы",39.0256453388127,54.9495176754043,30.3,5,"условно комфортный климат",36,25,15,30,41,31,178,"https://api.индекс-городов.рф/uploads/city/emblem/375/thumb_377_lukhovitsy.png","Московская область","Малый город"
"431",376,32,"Лысково",45.0328250697155,56.0335742415497,21.2,6,"условно комфортный климат",35,29,34,29,22,28,177,"https://api.индекс-городов.рф/uploads/city/emblem/376/thumb_378_lyskovo.png","Нижегородская область","Малый город"
"432",377,24,"Льгов",35.2675720240213,51.655230859742,18.4,6,"условно комфортный климат",29,28,22,25,19,33,156,"https://api.индекс-городов.рф/uploads/city/emblem/377/thumb_379_lgov.png","Курская область","Малый город"
"433",378,25,"Любань",31.2470666542926,59.3484329028927,4.5,7,"условно комфортный климат",21,26,26,22,16,12,123,"https://api.индекс-городов.рф/uploads/city/emblem/378/thumb_380_luban.gif","Ленинградская область","Малый город"
"434",379,85,"Любим",40.687279596394,58.355734205169,5.1,6,"условно комфортный климат",27,22,28,29,19,32,157,"https://api.индекс-городов.рф/uploads/city/emblem/379/thumb_381_lyubim.png","Ярославская область","Малый город"
"435",380,16,"Людиново",34.4423813590627,53.8465838013915,37.7,5,"условно комфортный климат",27,28,16,19,24,33,147,"https://api.индекс-городов.рф/uploads/city/emblem/380/thumb_382_lyudinovo.png","Калужская область","Малый город"
"436",381,79,"Лянтор",72.1904075122277,61.633444307749,40.9,5,"тяжелые климатические условия",30,26,16,16,25,19,132,"https://api.индекс-городов.рф/uploads/city/emblem/381/thumb_383_luantor.png","Ханты-Мансийский автономный округ","Малый город"
